[{"id":"elgin-medical-centre-248229933","osm_id":248229933,"name":"Elgin Medical Centre","lat":-37.797473,"lon":144.972691,"state":"VIC","suburb":"","postcode":"","address":"54, Elgin Street, VIC","phone":"+61 3 9347 2788","website":"","hours":"Mo-Tu 9:00-12:00; Th 9:00-12:00","type":"gp","bulk_billing":"unknown"},{"id":"kilsyth-medical-group-266164022","osm_id":266164022,"name":"Kilsyth Medical Group","lat":-37.801426,"lon":145.307841,"state":"VIC","suburb":"","postcode":"","address":"VIC","phone":"","website":"","hours":"","type":"gp","bulk_billing":"unknown"},{"id":"station-street-clinic-356652632","osm_id":356652632,"name":"Station Street Clinic","lat":-38.079183,"lon":145.485154,"state":"VIC","suburb":"","postcode":"","address":"VIC","phone":"","website":"","hours":"","type":"gp","bulk_billing":"unknown"},{"id":"carlton-family-medical-377215589","osm_id":377215589,"name":"Carlton Family Medical","lat":-37.797911,"lon":144.970664,"state":"VIC","suburb":"","postcode":"","address":"88, Rathdowne Street, VIC","phone":"+61 3 8330 3900","website":"https://www.carltonfamilymedical.com.au/","hours":"Mo 08:30-18:00; Tu,Th 08:30-17:30; We,Fr 08:30-17:00; Sa 09:00-13:00","type":"gp","bulk_billing":"unknown"},{"id":"access-medical-centre-395212301","osm_id":395212301,"name":"Access Medical Centre","lat":-37.87094,"lon":145.243149,"state":"VIC","suburb":"","postcode":"","address":"VIC","phone":"","website":"","hours":"","type":"gp","bulk_billing":"unknown"},{"id":"high-street-medical-clinic-537410675","osm_id":537410675,"name":"High Street Medical Clinic","lat":-37.851476,"lon":144.99175,"state":"VIC","suburb":"","postcode":"","address":"VIC","phone":"","website":"","hours":"","type":"gp","bulk_billing":"unknown"},{"id":"albert-road-clinic-560635778","osm_id":560635778,"name":"Albert Road Clinic","lat":-37.834268,"lon":144.972187,"state":"VIC","suburb":"","postcode":"","address":"VIC","phone":"","website":"","hours":"","type":"gp","bulk_billing":"unknown"},{"id":"complete-care-medical-centre-567833498","osm_id":567833498,"name":"Complete Care Medical Centre","lat":-37.73213,"lon":145.025343,"state":"VIC","suburb":"","postcode":"","address":"VIC","phone":"","website":"","hours":"","type":"gp","bulk_billing":"unknown"},{"id":"dr-john-vissaritis-583448401","osm_id":583448401,"name":"Dr John Vissaritis","lat":-37.834444,"lon":144.96376,"state":"VIC","suburb":"South Melbourne","postcode":"3205","address":"186, Park Street, South Melbourne, VIC, 3205","phone":"+61 3 9699 4822","website":"","hours":"","type":"gp","bulk_billing":"unknown"},{"id":"waverley-consulting-suites-583459516","osm_id":583459516,"name":"Waverley Consulting Suites","lat":-37.884201,"lon":145.146539,"state":"VIC","suburb":"","postcode":"","address":"VIC","phone":"","website":"","hours":"","type":"gp","bulk_billing":"unknown"},{"id":"obstetricians-gynaecologists-583459517","osm_id":583459517,"name":"Obstetricians & Gynaecologists","lat":-37.884726,"lon":145.1467,"state":"VIC","suburb":"","postcode":"","address":"VIC","phone":"","website":"","hours":"","type":"gp","bulk_billing":"unknown"},{"id":"coleman-parade-medical-centre-594509656","osm_id":594509656,"name":"Coleman Parade Medical Centre","lat":-37.876937,"lon":145.150352,"state":"VIC","suburb":"Glen Waverley","postcode":"3150","address":"39, Coleman Parade, Glen Waverley, VIC, 3150","phone":"","website":"","hours":"","type":"gp","bulk_billing":"unknown"},{"id":"mount-waverley-clinic-595446398","osm_id":595446398,"name":"Mount Waverley Clinic","lat":-37.877039,"lon":145.126741,"state":"VIC","suburb":"","postcode":"","address":"VIC","phone":"","website":"","hours":"","type":"gp","bulk_billing":"unknown"},{"id":"waverley-family-healthcare-610629489","osm_id":610629489,"name":"Waverley Family Healthcare","lat":-37.890167,"lon":145.144567,"state":"VIC","suburb":"","postcode":"","address":"401, Blackburn Road, VIC","phone":"","website":"","hours":"","type":"gp","bulk_billing":"unknown"},{"id":"era-health-612769757","osm_id":612769757,"name":"Era Health","lat":-37.816194,"lon":144.956972,"state":"VIC","suburb":"","postcode":"","address":"VIC","phone":"","website":"","hours":"","type":"gp","bulk_billing":"unknown"},{"id":"emerald-medical-centre-612812472","osm_id":612812472,"name":"Emerald Medical Centre","lat":-37.932407,"lon":145.441389,"state":"VIC","suburb":"","postcode":"","address":"1, Murphys Way, VIC","phone":"+61 3 5968 4622","website":"https://www.emeraldmed.com.au","hours":"Mo-Fr 08:30-20:00; Sa 08:30-12:30","type":"gp","bulk_billing":"unknown"},{"id":"victorian-aboriginal-health-service-co-operative-ltd-613367916","osm_id":613367916,"name":"Victorian Aboriginal Health Service Co-operative Ltd","lat":-37.79938,"lon":144.975129,"state":"VIC","suburb":"","postcode":"","address":"186, Nicholson Street, VIC","phone":"+61 3 9419 3000","website":"https://www.vahs.org.au/","hours":"Mo-Th 9:00-17:00; Fr 9:00-16:00; Sa 10:00-12:00","type":"gp","bulk_billing":"unknown"},{"id":"the-highton-clinic-620248165","osm_id":620248165,"name":"The Highton Clinic","lat":-38.172505,"lon":144.323772,"state":"VIC","suburb":"","postcode":"","address":"10a, Bellevue Avenue, VIC","phone":"+61 3 5243 5566","website":"","hours":"","type":"gp","bulk_billing":"unknown"},{"id":"araluen-house-medical-clinic-632242178","osm_id":632242178,"name":"Araluen House Medical Clinic","lat":-37.789231,"lon":144.976683,"state":"VIC","suburb":"Fitzroy North","postcode":"3068","address":"446, Nicholson Street, Fitzroy North, VIC, 3068","phone":"+61 3 9489 4339","website":"","hours":"","type":"gp","bulk_billing":"unknown"},{"id":"colchester-medical-centre-644616250","osm_id":644616250,"name":"Colchester Medical Centre","lat":-37.831097,"lon":145.302034,"state":"VIC","suburb":"Bayswater North","postcode":"","address":"310, Colchester Road, Bayswater North, VIC","phone":"","website":"","hours":"","type":"gp","bulk_billing":"unknown"},{"id":"fitzroy-community-health-centre-652309865","osm_id":652309865,"name":"Fitzroy Community Health Centre","lat":-37.804945,"lon":144.977145,"state":"VIC","suburb":"","postcode":"","address":"75, Brunswick Street, VIC","phone":"+61 3 9411 3555","website":"http://www.nych.org.au/location/fitzroy.html","hours":"Mo-Fr 9:00-18:00; Sa 9:00-12:00","type":"gp","bulk_billing":"unknown"},{"id":"hillscene-family-medical-centre-674012641","osm_id":674012641,"name":"Hillscene Family Medical Centre","lat":-37.909355,"lon":145.354049,"state":"VIC","suburb":"","postcode":"","address":"1647, Burwood Highway , VIC","phone":"+61 3 9752 6111","website":"https://belgravegps.com.au","hours":"Mo-Th 09:00-18:00; Fr 09:00-13:00","type":"gp","bulk_billing":"unknown"},{"id":"specialist-medical-centre-678997270","osm_id":678997270,"name":"Specialist Medical Centre","lat":-37.880439,"lon":145.166215,"state":"VIC","suburb":"","postcode":"","address":"VIC","phone":"","website":"","hours":"","type":"gp","bulk_billing":"unknown"},{"id":"metropolitan-medical-centres-carlton-703004375","osm_id":703004375,"name":"Metropolitan Medical Centres Carlton","lat":-37.797858,"lon":144.968289,"state":"VIC","suburb":"","postcode":"","address":"380, Lygon Street, VIC","phone":"+61 3 9347 7711","website":"","hours":"Mo-Fr 9:00-17:00; Sa 9:00-14:00","type":"gp","bulk_billing":"unknown"},{"id":"coburg-central-medical-centre-703067980","osm_id":703067980,"name":"Coburg Central Medical Centre","lat":-37.744485,"lon":144.964031,"state":"VIC","suburb":"","postcode":"","address":"VIC","phone":"","website":"","hours":"","type":"gp","bulk_billing":"unknown"},{"id":"east-brunswick-medical-centre-772402741","osm_id":772402741,"name":"East Brunswick Medical Centre","lat":-37.767475,"lon":144.979592,"state":"VIC","suburb":"","postcode":"","address":"212-214, Blyth Street, VIC","phone":"+61 3 9388 0990","website":"https://www.eastbrunswickmedical.com.au/","hours":"","type":"gp","bulk_billing":"unknown"},{"id":"north-fitzroy-village-medical-practice-776652696","osm_id":776652696,"name":"North Fitzroy Village Medical Practice","lat":-37.783783,"lon":144.983584,"state":"VIC","suburb":"","postcode":"","address":"226, St Georges Road, VIC","phone":"+61 3 9482 3344","website":"","hours":"","type":"gp","bulk_billing":"unknown"},{"id":"karuna-maya-medicine-846639967","osm_id":846639967,"name":"Karuna-Maya Medicine","lat":-38.349492,"lon":144.299159,"state":"VIC","suburb":"Jan Juc","postcode":"3228","address":"22, Princes Terrace, Jan Juc, VIC, 3228","phone":"+61 3 5261 4146","website":"https://www.karunamedicine.com/","hours":"Mo-Fr 08:30-17:00","type":"gp","bulk_billing":"unknown"},{"id":"surfcoast-medical-centre-848692407","osm_id":848692407,"name":"Surfcoast Medical Centre","lat":-38.327848,"lon":144.317788,"state":"VIC","suburb":"","postcode":"","address":"VIC","phone":"","website":"https://surfcoastmedical.com.au/","hours":"","type":"gp","bulk_billing":"unknown"},{"id":"birregurra-community-health-centre-849463836","osm_id":849463836,"name":"Birregurra Community Health Centre","lat":-38.336208,"lon":143.785963,"state":"VIC","suburb":"","postcode":"","address":"28-30, Strachan Street, VIC","phone":"+61 3 5236 2000","website":"https://birregurracommunityhealthcentre.com.au/","hours":"","type":"gp","bulk_billing":"unknown"},{"id":"chapel-gate-medical-centre-927443212","osm_id":927443212,"name":"Chapel Gate Medical Centre","lat":-37.857224,"lon":144.991999,"state":"VIC","suburb":"","postcode":"","address":"VIC","phone":"+61 3 9510 7888","website":"https://www.chapelgate.com.au/","hours":"","type":"gp","bulk_billing":"unknown"},{"id":"south-barwon-medical-centre-938161819","osm_id":938161819,"name":"South Barwon Medical Centre","lat":-38.182065,"lon":144.344683,"state":"VIC","suburb":"","postcode":"","address":"VIC","phone":"","website":"","hours":"","type":"gp","bulk_billing":"unknown"},{"id":"northside-clinic-939010214","osm_id":939010214,"name":"Northside Clinic","lat":-37.778747,"lon":144.987929,"state":"VIC","suburb":"","postcode":"","address":"370, St Georges Road, VIC","phone":"+61 3 9485 7700","website":"https://northsideclinic.net.au/","hours":"Mo-We 8:30-19:00; Th-Fr 8:30-18:00; Sa 9:00-12:00","type":"gp","bulk_billing":"unknown"},{"id":"ashley-street-medical-centre-955886230","osm_id":955886230,"name":"Ashley Street Medical Centre","lat":-37.789342,"lon":144.864226,"state":"VIC","suburb":"Maidstone","postcode":"3012","address":"88, Ashley Street, Maidstone, VIC, 3012","phone":"","website":"","hours":"","type":"gp","bulk_billing":"unknown"},{"id":"epping-clinic-978063981","osm_id":978063981,"name":"Epping Clinic","lat":-37.642749,"lon":145.026893,"state":"VIC","suburb":"","postcode":"","address":"VIC","phone":"","website":"","hours":"","type":"gp","bulk_billing":"unknown"},{"id":"darebin-community-health-1034785522","osm_id":1034785522,"name":"Darebin Community Health","lat":-37.7699,"lon":145.001264,"state":"VIC","suburb":"","postcode":"","address":"VIC","phone":"+61 3 9403 1200","website":"","hours":"","type":"gp","bulk_billing":"unknown"},{"id":"west-brunswick-clinic-1041934032","osm_id":1041934032,"name":"West Brunswick Clinic","lat":-37.766845,"lon":144.943035,"state":"VIC","suburb":"","postcode":"","address":"VIC","phone":"","website":"","hours":"","type":"gp","bulk_billing":"unknown"},{"id":"northcote-medical-1068765088","osm_id":1068765088,"name":"Northcote Medical","lat":-37.768415,"lon":145.000553,"state":"VIC","suburb":"","postcode":"","address":"1-2, Robbs Parade, VIC","phone":"+61 3 9489 6472","website":"","hours":"Mo-Fr 9:00-18:00; Sa 9:30-16:30","type":"gp","bulk_billing":"unknown"},{"id":"croxton-medical-centre-1068765356","osm_id":1068765356,"name":"Croxton Medical Centre","lat":-37.768401,"lon":145.000299,"state":"VIC","suburb":"","postcode":"","address":"4, Robbs Parade, VIC","phone":"","website":"","hours":"","type":"gp","bulk_billing":"unknown"},{"id":"connect-health-movement-1072625650","osm_id":1072625650,"name":"Connect Health + Movement","lat":-37.794532,"lon":144.929747,"state":"VIC","suburb":"","postcode":"","address":"VIC","phone":"","website":"","hours":"","type":"gp","bulk_billing":"unknown"},{"id":"bacchus-marsh-medical-centre-1080041909","osm_id":1080041909,"name":"Bacchus Marsh Medical Centre","lat":-37.67722,"lon":144.434583,"state":"VIC","suburb":"","postcode":"","address":"Turner Street, VIC","phone":"","website":"","hours":"","type":"gp","bulk_billing":"unknown"},{"id":"no-68-medical-centre-melbourne-clinical-laser-1080052561","osm_id":1080052561,"name":"No 68 Medical Centre | Melbourne Clinical Laser","lat":-37.809721,"lon":144.970302,"state":"VIC","suburb":"","postcode":"","address":"68, Lonsdale Street, VIC","phone":"1300 757 816","website":"https://www.melbourneclinicallaser.com.au/","hours":"Mo-Fr 10:00-17:00","type":"gp","bulk_billing":"unknown"},{"id":"the-medical-clinic-1207280440","osm_id":1207280440,"name":"The Medical Clinic","lat":-37.929971,"lon":145.358381,"state":"VIC","suburb":"Belgrave South","postcode":"3160","address":"130, Colby Drive, Belgrave South, VIC, 3160","phone":"+61 3 9754 7477","website":"https://themedicalclinic.com.au","hours":"Mo, We, Fr 08:30-17:00; Tu, Th 08:30-18:00; Sa 09:00-12:00","type":"gp","bulk_billing":"unknown"},{"id":"selby-family-clinic-1208858703","osm_id":1208858703,"name":"Selby Family Clinic","lat":-37.914653,"lon":145.372739,"state":"VIC","suburb":"","postcode":"","address":"VIC","phone":"","website":"","hours":"","type":"gp","bulk_billing":"unknown"},{"id":"turn-the-corner-medical-clinic-1426026595","osm_id":1426026595,"name":"Turn the Corner Medical Clinic","lat":-37.768469,"lon":144.999049,"state":"VIC","suburb":"","postcode":"3070","address":"409, High Street, VIC, 3070","phone":"","website":"https://www.turnthecorner.com.au/","hours":"","type":"gp","bulk_billing":"unknown"},{"id":"doctors-of-northcote-1427083053","osm_id":1427083053,"name":"Doctors of Northcote","lat":-37.771771,"lon":144.998365,"state":"VIC","suburb":"","postcode":"","address":"295, High Street, VIC","phone":"+61 3 9481 1214","website":"https://www.doctorsofnorthcote.com/","hours":"","type":"gp","bulk_billing":"unknown"},{"id":"victoria-road-medical-centre-1427083070","osm_id":1427083070,"name":"Victoria Road Medical Centre","lat":-37.778362,"lon":145.010496,"state":"VIC","suburb":"","postcode":"","address":"68, Victoria Road, VIC","phone":"+61 3 9489 5504","website":"","hours":"Mo-Fr 09:00-12:30, 14:30-18:00; Sa 09:00-12:00","type":"centre","bulk_billing":"unknown"},{"id":"forest-hill-medical-dental-centre-1436143014","osm_id":1436143014,"name":"Forest Hill Medical & Dental Centre","lat":-37.848774,"lon":145.169818,"state":"VIC","suburb":"Forest Hill","postcode":"3131","address":"490-524, Springvale Road, Forest Hill, VIC, 3131","phone":"","website":"https://www.foresthillmedicalcentre.com.au/","hours":"","type":"gp","bulk_billing":"unknown"},{"id":"north-reservoir-medical-centre-1455647290","osm_id":1455647290,"name":"North Reservoir Medical Centre","lat":-37.704659,"lon":144.98962,"state":"VIC","suburb":"Reservoir","postcode":"3073","address":"37, Massey Avenue, Reservoir, VIC, 3073","phone":"+61 3 9460 7780","website":"","hours":"","type":"gp","bulk_billing":"unknown"},{"id":"access-medical-centre-1586652918","osm_id":1586652918,"name":"Access Medical Centre","lat":-37.90688,"lon":145.161195,"state":"VIC","suburb":"Wheelers Hill","postcode":"3150","address":"2, Magid Avenue, Wheelers Hill, VIC, 3150","phone":"","website":"https://www.accessmedical.com.au/","hours":"","type":"gp","bulk_billing":"unknown"},{"id":"lum-road-medical-clinic-1626467746","osm_id":1626467746,"name":"Lum Road Medical Clinic","lat":-37.916536,"lon":145.176431,"state":"VIC","suburb":"","postcode":"","address":"VIC","phone":"","website":"","hours":"","type":"gp","bulk_billing":"unknown"},{"id":"dr-tawfik-massarany-1671554403","osm_id":1671554403,"name":"Dr. Tawfik Massarany","lat":-37.775754,"lon":144.971264,"state":"VIC","suburb":"Brunswick East","postcode":"3057","address":"155, Weston Street, Brunswick East, VIC, 3057","phone":"","website":"https://www.healthdirect.gov.au/australian-health-services/healthcare-service/brunswick-east-3057-vic/dr-t-p-massarany-medical-practitioner/gp-general-practice/8043208e-2e98-b299-fec6-a6d7858bd25c","hours":"","type":"gp","bulk_billing":"unknown"},{"id":"monty-osteo-1864405225","osm_id":1864405225,"name":"Monty Osteo","lat":-37.71646,"lon":145.120995,"state":"VIC","suburb":"","postcode":"","address":"35, Were Street, VIC","phone":"+61 3 9444 6785","website":"https://montyosteo.com.au/","hours":"Mo-Th 08:00-19:00; Fr 08:00-17:00","type":"gp","bulk_billing":"unknown"},{"id":"ridge-health-wellbeing-centre-1876465887","osm_id":1876465887,"name":"Ridge Health & Wellbeing Centre","lat":-37.719744,"lon":145.138119,"state":"VIC","suburb":"","postcode":"","address":"VIC","phone":"","website":"","hours":"","type":"gp","bulk_billing":"unknown"},{"id":"dundas-street-family-medical-practice-1959963602","osm_id":1959963602,"name":"Dundas Street Family Medical Practice","lat":-37.752619,"lon":145.002541,"state":"VIC","suburb":"","postcode":"","address":"4, Dundas Street, VIC","phone":"+61 3 9484 2007","website":"","hours":"","type":"gp","bulk_billing":"unknown"},{"id":"the-neighbourhood-clinic-2056959146","osm_id":2056959146,"name":"The Neighbourhood Clinic","lat":-37.780082,"lon":144.986433,"state":"VIC","suburb":"Fitzroy North","postcode":"3068","address":"329-331, St Georges Road, Fitzroy North, VIC, 3068","phone":"","website":"https://www.theneighbourhood.clinic/","hours":"","type":"gp","bulk_billing":"unknown"},{"id":"bairnsdale-medical-group-2082800955","osm_id":2082800955,"name":"Bairnsdale Medical Group","lat":-37.829368,"lon":147.613605,"state":"VIC","suburb":"","postcode":"","address":"VIC","phone":"","website":"","hours":"","type":"gp","bulk_billing":"unknown"},{"id":"merri-health-2097466302","osm_id":2097466302,"name":"Merri Health","lat":-37.771553,"lon":144.962651,"state":"VIC","suburb":"Brunswick","postcode":"3056","address":"11, Glenlyon Road, Brunswick, VIC, 3056","phone":"","website":"https://www.merrihealth.org.au/","hours":"Mo-Fr 08:30-17:00; Sa-Su closed","type":"gp","bulk_billing":"unknown"},{"id":"long-beach-medical-centre-2097475055","osm_id":2097475055,"name":"Long Beach Medical Centre","lat":-38.02912,"lon":145.130177,"state":"VIC","suburb":"Chelsea Heights","postcode":"3196","address":"4, Chelsea Heights, VIC, 3196","phone":"+61 3 9772 9555","website":"","hours":"","type":"gp","bulk_billing":"unknown"},{"id":"the-glen-endoscopy-centre-2122150299","osm_id":2122150299,"name":"The Glen Endoscopy Centre","lat":-37.884659,"lon":145.165172,"state":"VIC","suburb":"Glen Waverley","postcode":"3150","address":"302, Springvale Road, Glen Waverley, VIC, 3150","phone":"","website":"","hours":"","type":"gp","bulk_billing":"unknown"},{"id":"st-kilda-road-medical-centre-2144922897","osm_id":2144922897,"name":"St Kilda Road Medical Centre","lat":-37.835551,"lon":144.975633,"state":"VIC","suburb":"","postcode":"","address":"391, St Kilda Road, VIC","phone":"+61 3 9869 2000","website":"http://www.skrmc.com.au/","hours":"","type":"gp","bulk_billing":"unknown"},{"id":"endeavour-hills-specialist-clinic-2149810531","osm_id":2149810531,"name":"Endeavour Hills Specialist Clinic","lat":-37.978991,"lon":145.259367,"state":"VIC","suburb":"","postcode":"","address":"VIC","phone":"","website":"","hours":"","type":"gp","bulk_billing":"unknown"},{"id":"raymond-mcmahon-medical-centre-2149812347","osm_id":2149812347,"name":"Raymond McMahon Medical Centre","lat":-37.978771,"lon":145.261027,"state":"VIC","suburb":"","postcode":"","address":"VIC","phone":"","website":"","hours":"","type":"gp","bulk_billing":"unknown"},{"id":"ashburton-medical-clinic-2155563048","osm_id":2155563048,"name":"Ashburton Medical Clinic","lat":-37.863538,"lon":145.082059,"state":"VIC","suburb":"Ashburton","postcode":"3147","address":"301A, High Street, Ashburton, VIC, 3147","phone":"","website":"","hours":"","type":"gp","bulk_billing":"unknown"},{"id":"the-fresh-foot-centre-2161903783","osm_id":2161903783,"name":"The Fresh Foot Centre","lat":-38.021357,"lon":145.298471,"state":"VIC","suburb":"","postcode":"3805","address":"4, Springwood Avenue, VIC, 3805","phone":"","website":"","hours":"","type":"gp","bulk_billing":"unknown"},{"id":"farrelly-chiropractic-2161914866","osm_id":2161914866,"name":"Farrelly Chiropractic","lat":-38.024686,"lon":145.303486,"state":"VIC","suburb":"","postcode":"3805","address":"463, Princes Highway, VIC, 3805","phone":"","website":"","hours":"","type":"gp","bulk_billing":"unknown"},{"id":"iehealth-2179444482","osm_id":2179444482,"name":"iehealth","lat":-37.866723,"lon":145.083885,"state":"VIC","suburb":"Ashburton","postcode":"3147","address":"7, Samarinda Avenue, Ashburton, VIC, 3147","phone":"+61 3 9885 6822","website":"","hours":"","type":"gp","bulk_billing":"unknown"},{"id":"hollie-drive-medical-centre-2200792336","osm_id":2200792336,"name":"Hollie Drive Medical Centre","lat":-38.235475,"lon":146.432481,"state":"VIC","suburb":"","postcode":"","address":"VIC","phone":"","website":"www.holliedrivemc.com.au","hours":"","type":"gp","bulk_billing":"unknown"},{"id":"carewell-medical-centre-2251903464","osm_id":2251903464,"name":"Carewell Medical Centre","lat":-38.022235,"lon":145.117315,"state":"VIC","suburb":"Aspendale Gardens","postcode":"3195","address":"15, 11, Narelle Drive, Aspendale Gardens, VIC, 3195","phone":"+61 3 9590 9955","website":"","hours":"","type":"gp","bulk_billing":"unknown"},{"id":"phillip-island-medical-centre-2263583004","osm_id":2263583004,"name":"Phillip Island Medical Centre","lat":-38.456853,"lon":145.238465,"state":"VIC","suburb":"","postcode":"","address":"3, VIC","phone":"+61 3 5951 1800","website":"https://cowesmedicalcentre.com.au","hours":"","type":"gp","bulk_billing":"unknown"},{"id":"melbourne-north-medical-clinic-2286233334","osm_id":2286233334,"name":"Melbourne North Medical Clinic","lat":-37.804272,"lon":144.958148,"state":"VIC","suburb":"","postcode":"","address":"VIC","phone":"","website":"","hours":"","type":"gp","bulk_billing":"unknown"},{"id":"your-health-place-2296932756","osm_id":2296932756,"name":"Your Health Place","lat":-37.889676,"lon":145.043297,"state":"VIC","suburb":"","postcode":"","address":"1176, Glen Huntly Road, VIC","phone":"","website":"","hours":"","type":"gp","bulk_billing":"unknown"},{"id":"victoria-parade-surgery-centre-2323880667","osm_id":2323880667,"name":"Victoria Parade Surgery Centre","lat":-37.808497,"lon":144.97492,"state":"VIC","suburb":"","postcode":"","address":"Level 1, 100, Victoria Parade, VIC","phone":"+61 3 9650 4000","website":"https://www.vpsc.com.au/","hours":"","type":"hospital","bulk_billing":"unknown"},{"id":"dr-uday-dixit-2338749352","osm_id":2338749352,"name":"Dr Uday Dixit","lat":-37.890426,"lon":145.164177,"state":"VIC","suburb":"Glen Waverley","postcode":"3150","address":"400, Springvale Road, Glen Waverley, VIC, 3150","phone":"","website":"","hours":"","type":"gp","bulk_billing":"unknown"},{"id":"cambridge-medical-centre-2339899187","osm_id":2339899187,"name":"Cambridge Medical Centre","lat":-37.89115,"lon":145.145107,"state":"VIC","suburb":"","postcode":"","address":"VIC","phone":"","website":"","hours":"","type":"gp","bulk_billing":"unknown"},{"id":"wyndham-vale-health-2343283470","osm_id":2343283470,"name":"Wyndham Vale Health","lat":-37.892876,"lon":144.629856,"state":"VIC","suburb":"","postcode":"","address":"VIC","phone":"","website":"","hours":"","type":"gp","bulk_billing":"unknown"},{"id":"dr-bach-s-medical-clinic-2345109724","osm_id":2345109724,"name":"Dr Bach's Medical Clinic","lat":-37.799159,"lon":144.899539,"state":"VIC","suburb":"Footscray","postcode":"3011","address":"1, 76, Nicholson Road, Footscray, VIC, 3011","phone":"","website":"","hours":"","type":"gp","bulk_billing":"unknown"},{"id":"medical-centre-2394615629","osm_id":2394615629,"name":"Medical Centre","lat":-37.904062,"lon":145.085919,"state":"VIC","suburb":"Hughesdale","postcode":"3166","address":"139, Warrigal Road, Hughesdale, VIC, 3166","phone":"","website":"","hours":"","type":"gp","bulk_billing":"unknown"},{"id":"brunswick-medical-group-2397013368","osm_id":2397013368,"name":"Brunswick Medical Group","lat":-37.765791,"lon":144.963653,"state":"VIC","suburb":"","postcode":"","address":"VIC","phone":"","website":"","hours":"Mo-Fr 08:30-18:30; Sa-Su 09:00-11:00","type":"gp","bulk_billing":"unknown"},{"id":"northend-medical-centre-2406002086","osm_id":2406002086,"name":"Northend Medical Centre","lat":-37.66035,"lon":145.028325,"state":"VIC","suburb":"","postcode":"","address":"VIC","phone":"","website":"","hours":"","type":"gp","bulk_billing":"unknown"},{"id":"monash-university-health-service-2417275895","osm_id":2417275895,"name":"Monash University Health Service","lat":-37.91157,"lon":145.132526,"state":"VIC","suburb":"","postcode":"","address":"VIC","phone":"","website":"https://www.monash.edu.au/health-medical/","hours":"","type":"gp","bulk_billing":"unknown"},{"id":"clinicare-multidiscipline-family-practice-2417757943","osm_id":2417757943,"name":"Clinicare Multidiscipline Family Practice","lat":-37.80434,"lon":144.983175,"state":"VIC","suburb":"","postcode":"","address":"165, Smith Street, VIC","phone":"+61 3 9417 3377","website":"https://www.yourhealth.net.au/clinicare/","hours":"","type":"gp","bulk_billing":"unknown"},{"id":"dorset-specialist-centre-2458004385","osm_id":2458004385,"name":"Dorset Specialist Centre","lat":-37.724101,"lon":144.946884,"state":"VIC","suburb":"Pascoe Vale","postcode":"3044","address":"167, Derby Street, Pascoe Vale, VIC, 3044","phone":"","website":"","hours":"","type":"gp","bulk_billing":"unknown"},{"id":"gippsland-health-2472085595","osm_id":2472085595,"name":"Gippsland Health","lat":-37.70171,"lon":148.464869,"state":"VIC","suburb":"","postcode":"","address":"VIC","phone":"","website":"","hours":"","type":"gp","bulk_billing":"unknown"},{"id":"good-shepard-medical-centre-2473369243","osm_id":2473369243,"name":"Good Shepard Medical Centre","lat":-37.908999,"lon":145.079508,"state":"VIC","suburb":"Bentleigh East","postcode":"3165","address":"1080, North Road, Bentleigh East, VIC, 3165","phone":"","website":"","hours":"","type":"gp","bulk_billing":"unknown"},{"id":"casey-superclinic-2485928924","osm_id":2485928924,"name":"Casey Superclinic","lat":-38.042279,"lon":145.346201,"state":"VIC","suburb":"","postcode":"","address":"VIC","phone":"+61 3 9707 4777","website":"","hours":"24/7","type":"gp","bulk_billing":"unknown"},{"id":"mordialloc-medical-centre-2504738180","osm_id":2504738180,"name":"Mordialloc Medical Centre","lat":-38.006361,"lon":145.085729,"state":"VIC","suburb":"Mordialloc","postcode":"3195","address":"554, Main Street, Mordialloc, VIC, 3195","phone":"+61 3 9587 6311","website":"","hours":"","type":"gp","bulk_billing":"unknown"},{"id":"connect-health-movement-2517026754","osm_id":2517026754,"name":"Connect Health + Movement","lat":-37.787421,"lon":144.929435,"state":"VIC","suburb":"","postcode":"","address":"VIC","phone":"+61 3 9376 1600","website":"https://connecthm.com.au","hours":"","type":"gp","bulk_billing":"unknown"},{"id":"lifestyle-psychology-2534650023","osm_id":2534650023,"name":"Lifestyle Psychology","lat":-37.776216,"lon":144.954211,"state":"VIC","suburb":"","postcode":"","address":"343, Brunswick Road, VIC","phone":"","website":"","hours":"","type":"gp","bulk_billing":"unknown"},{"id":"southern-cross-medical-centre-2535983403","osm_id":2535983403,"name":"Southern Cross Medical Centre","lat":-38.034805,"lon":145.264309,"state":"VIC","suburb":"","postcode":"","address":"VIC","phone":"","website":"","hours":"","type":"gp","bulk_billing":"unknown"},{"id":"waverley-medical-centre-2564316258","osm_id":2564316258,"name":"Waverley Medical Centre","lat":-37.878864,"lon":145.16628,"state":"VIC","suburb":"","postcode":"","address":"VIC","phone":"","website":"","hours":"","type":"gp","bulk_billing":"unknown"},{"id":"southern-cross-medical-centre-2577390578","osm_id":2577390578,"name":"Southern Cross Medical Centre","lat":-38.034858,"lon":145.264134,"state":"VIC","suburb":"","postcode":"","address":"Stuart Avenue, VIC","phone":"","website":"","hours":"","type":"gp","bulk_billing":"unknown"},{"id":"parkview-clinic-2588931359","osm_id":2588931359,"name":"Parkview Clinic","lat":-38.035029,"lon":145.30585,"state":"VIC","suburb":"","postcode":"","address":"VIC","phone":"","website":"","hours":"","type":"gp","bulk_billing":"unknown"},{"id":"fountain-gate-medical-centre-2588944471","osm_id":2588944471,"name":"Fountain Gate Medical Centre","lat":-38.002422,"lon":145.312002,"state":"VIC","suburb":"","postcode":"","address":"VIC","phone":"","website":"","hours":"","type":"gp","bulk_billing":"unknown"},{"id":"berwick-healthcare-2605749207","osm_id":2605749207,"name":"Berwick Healthcare","lat":-38.0396,"lon":145.341773,"state":"VIC","suburb":"","postcode":"","address":"VIC","phone":"","website":"https://www.berwickhealthcare.com.au","hours":"","type":"gp","bulk_billing":"unknown"},{"id":"wellness-on-wellington-2614558686","osm_id":2614558686,"name":"Wellness on Wellington","lat":-37.926688,"lon":145.250554,"state":"VIC","suburb":"","postcode":"","address":"VIC","phone":"","website":"","hours":"","type":"gp","bulk_billing":"unknown"},{"id":"ellendale-medical-clinic-2622212975","osm_id":2622212975,"name":"Ellendale Medical Clinic","lat":-37.965865,"lon":145.182193,"state":"VIC","suburb":"","postcode":"","address":"VIC","phone":"","website":"","hours":"","type":"gp","bulk_billing":"unknown"},{"id":"vaeai-naamalata-2622996145","osm_id":2622996145,"name":"VAEAI Naamalata","lat":-37.774378,"lon":144.997125,"state":"VIC","suburb":"","postcode":"","address":"VIC","phone":"","website":"","hours":"","type":"gp","bulk_billing":"unknown"},{"id":"moonee-ponds-medical-centre-2629704666","osm_id":2629704666,"name":"Moonee Ponds Medical Centre","lat":-37.766284,"lon":144.91797,"state":"VIC","suburb":"","postcode":"3039","address":"34-46, Holmes Road, VIC, 3039","phone":"","website":"","hours":"","type":"pharmacy","bulk_billing":"unknown"},{"id":"the-chiropractic-clinic-2669668767","osm_id":2669668767,"name":"The Chiropractic Clinic","lat":-37.745737,"lon":144.973654,"state":"VIC","suburb":"","postcode":"","address":"73, Harding Street, VIC","phone":"+61 3 9378 8808","website":"https://thechiroclinic.com.au/","hours":"","type":"gp","bulk_billing":"unknown"},{"id":"bannockburn-surgery-2670887497","osm_id":2670887497,"name":"Bannockburn Surgery","lat":-38.045763,"lon":144.171335,"state":"VIC","suburb":"Bannockburn","postcode":"3331","address":"16, High Street, Bannockburn, VIC, 3331","phone":"","website":"","hours":"","type":"gp","bulk_billing":"unknown"},{"id":"audio-clinic-2689452150","osm_id":2689452150,"name":"Audio Clinic","lat":-37.88217,"lon":145.165609,"state":"VIC","suburb":"Glen Waverley","postcode":"3150","address":"278, Springvale Road, Glen Waverley, VIC, 3150","phone":"","website":"","hours":"","type":"gp","bulk_billing":"unknown"},{"id":"eastern-chinese-medical-centre-2689452152","osm_id":2689452152,"name":"Eastern Chinese Medical Centre","lat":-37.882343,"lon":145.165586,"state":"VIC","suburb":"Glen Waverley","postcode":"3150","address":"280, Springvale Road, Glen Waverley, VIC, 3150","phone":"","website":"","hours":"","type":"gp","bulk_billing":"unknown"},{"id":"mandalay-2689711347","osm_id":2689711347,"name":"Mandalay","lat":-37.800563,"lon":144.905254,"state":"VIC","suburb":"","postcode":"","address":"VIC","phone":"","website":"","hours":"","type":"gp","bulk_billing":"unknown"},{"id":"temple-hills-medical-centre-2702166276","osm_id":2702166276,"name":"Temple Hills Medical Centre","lat":-37.766236,"lon":145.1725,"state":"VIC","suburb":"Doncaster East","postcode":"3109","address":"2, Devlaw Drive, Doncaster East, VIC, 3109","phone":"+61 3 9842 9911","website":"https://www.templehillsmedical.com.au/","hours":"","type":"gp","bulk_billing":"unknown"},{"id":"geelong-day-surgery-2723322230","osm_id":2723322230,"name":"Geelong Day Surgery","lat":-38.096517,"lon":144.355065,"state":"VIC","suburb":"","postcode":"","address":"VIC","phone":"+61 3 5222 1560","website":"https://geelongdaysurgery.com.au","hours":"Mo-Th 08:15-17:00","type":"gp","bulk_billing":"unknown"},{"id":"camberwell-healthcare-centre-2724315480","osm_id":2724315480,"name":"Camberwell Healthcare Centre","lat":-37.835767,"lon":145.06158,"state":"VIC","suburb":"","postcode":"","address":"402, Camberwell Road, VIC","phone":"+61 3 9882 5584","website":"","hours":"","type":"gp","bulk_billing":"unknown"},{"id":"edwards-street-family-clinic-2735692787","osm_id":2735692787,"name":"Edwards Street Family Clinic","lat":-37.716044,"lon":145.004674,"state":"VIC","suburb":"","postcode":"","address":"VIC","phone":"","website":"","hours":"","type":"gp","bulk_billing":"unknown"},{"id":"medical-one-sunshine-2786965234","osm_id":2786965234,"name":"Medical One Sunshine","lat":-37.782633,"lon":144.832807,"state":"VIC","suburb":"","postcode":"","address":"VIC","phone":"","website":"","hours":"","type":"gp","bulk_billing":"unknown"},{"id":"eastbound-medical-clinic-2792350547","osm_id":2792350547,"name":"Eastbound Medical Clinic","lat":-37.920022,"lon":145.058647,"state":"VIC","suburb":"Bentleigh East","postcode":"3165","address":"179, East Boundary Road, Bentleigh East, VIC, 3165","phone":"+61 3 9579 3522","website":"https://www.eastboundclinic.com.au/","hours":"Mo 08:15-19:00; Tu 08:15-19:30; We,Th 08:15-18:00; Fr 08:15-17:00; Sa 08:15-12:30","type":"gp","bulk_billing":"unknown"},{"id":"harding-street-medical-centre-2820038622","osm_id":2820038622,"name":"Harding Street Medical Centre","lat":-37.745374,"lon":144.967476,"state":"VIC","suburb":"Coburg","postcode":"3058","address":"16, Harding Street, Coburg, VIC, 3058","phone":"+61 3 9384 1321","website":"https://hardingmedical.com.au/","hours":"","type":"gp","bulk_billing":"unknown"},{"id":"parkwood-green-medical-2864429538","osm_id":2864429538,"name":"Parkwood Green Medical","lat":-37.693056,"lon":144.744834,"state":"VIC","suburb":"","postcode":"","address":"1-5, Kate Way, VIC","phone":"+61 3 9449 4100","website":"https://parkwoodgreenmedical.com.au/","hours":"","type":"gp","bulk_billing":"unknown"},{"id":"allmed-medical-clinic-2915519301","osm_id":2915519301,"name":"AllMed Medical Clinic","lat":-37.779836,"lon":144.986449,"state":"VIC","suburb":"","postcode":"","address":"VIC","phone":"+61 3 9403 9900","website":"","hours":"","type":"gp","bulk_billing":"unknown"},{"id":"botany-park-medical-centre-2929136094","osm_id":2929136094,"name":"Botany Park Medical Centre","lat":-38.111737,"lon":145.173604,"state":"VIC","suburb":"Carrum Downs","postcode":"3201","address":"28, Lyrebird Drive, Carrum Downs, VIC, 3201","phone":"","website":"","hours":"","type":"gp","bulk_billing":"unknown"},{"id":"park-avenue-medical-centre-2953650600","osm_id":2953650600,"name":"Park Avenue Medical Centre","lat":-38.093192,"lon":145.293377,"state":"VIC","suburb":"","postcode":"","address":"3-7, Kingdom Drive, VIC","phone":"+61 3 5995 0766","website":"http://www.parkavenuemedical.com.au/","hours":"","type":"gp","bulk_billing":"unknown"},{"id":"bundoora-phisiotherapy-clinic-3008428174","osm_id":3008428174,"name":"Bundoora Phisiotherapy Clinic","lat":-37.691133,"lon":145.063299,"state":"VIC","suburb":"","postcode":"","address":"145, Plenty Road, VIC","phone":"","website":"","hours":"","type":"gp","bulk_billing":"unknown"},{"id":"bundoora-osteopathic-clinic-3008450033","osm_id":3008450033,"name":"Bundoora Osteopathic Clinic","lat":-37.690905,"lon":145.063523,"state":"VIC","suburb":"","postcode":"","address":"1, Oxley Avenue, VIC","phone":"","website":"","hours":"","type":"gp","bulk_billing":"unknown"},{"id":"lakes-boulevard-medical-centre-3088570048","osm_id":3088570048,"name":"Lakes Boulevard Medical Centre","lat":-37.631008,"lon":145.087476,"state":"VIC","suburb":"","postcode":"","address":"547-549, The Lakes Boulevard, VIC","phone":"","website":"","hours":"","type":"gp","bulk_billing":"unknown"},{"id":"central-city-community-health-service-3101324629","osm_id":3101324629,"name":"Central City Community Health Service","lat":-37.806722,"lon":144.960682,"state":"VIC","suburb":"","postcode":"","address":"VIC","phone":"","website":"","hours":"","type":"gp","bulk_billing":"unknown"},{"id":"southland-medical-centre-3195178722","osm_id":3195178722,"name":"Southland Medical Centre","lat":-37.958599,"lon":145.057295,"state":"VIC","suburb":"","postcode":"","address":"50, Chesterville Road, VIC","phone":"","website":"","hours":"","type":"gp","bulk_billing":"unknown"},{"id":"coburg-family-health-centre-3239431949","osm_id":3239431949,"name":"Coburg Family Health Centre","lat":-37.741177,"lon":144.966375,"state":"VIC","suburb":"","postcode":"","address":"VIC","phone":"","website":"","hours":"8:30-9:00","type":"gp","bulk_billing":"unknown"},{"id":"dr-kristine-meredith-3268342661","osm_id":3268342661,"name":"Dr Kristine Meredith","lat":-37.853373,"lon":145.041008,"state":"VIC","suburb":"","postcode":"","address":"VIC","phone":"","website":"","hours":"","type":"gp","bulk_billing":"unknown"},{"id":"airlie-women-s-clinic-3268344965","osm_id":3268344965,"name":"Airlie Women's Clinic","lat":-37.853267,"lon":145.04141,"state":"VIC","suburb":"","postcode":"","address":"1364, Malvern Road, VIC","phone":"+61 3 9525 1941","website":"","hours":"","type":"gp","bulk_billing":"unknown"},{"id":"bupa-3276141240","osm_id":3276141240,"name":"Bupa","lat":-37.818672,"lon":144.950095,"state":"VIC","suburb":"","postcode":"","address":"VIC","phone":"","website":"","hours":"","type":"gp","bulk_billing":"unknown"},{"id":"westgroup-medicals-3287021795","osm_id":3287021795,"name":"Westgroup Medicals","lat":-37.742244,"lon":144.798898,"state":"VIC","suburb":"","postcode":"","address":"14, Victoria Square, VIC","phone":"","website":"","hours":"","type":"gp","bulk_billing":"unknown"},{"id":"medical-clinic-3287021808","osm_id":3287021808,"name":"Medical clinic","lat":-37.743721,"lon":144.799504,"state":"VIC","suburb":"","postcode":"","address":"1, 1, East Esplanade, VIC","phone":"","website":"","hours":"","type":"gp","bulk_billing":"unknown"},{"id":"premier-health-partners-3306865466","osm_id":3306865466,"name":"Premier Health Partners","lat":-37.808422,"lon":144.95156,"state":"VIC","suburb":"West Melbourne","postcode":"","address":"491-495, King Street, West Melbourne, VIC","phone":"","website":"","hours":"","type":"gp","bulk_billing":"unknown"},{"id":"waverley-road-medical-clinic-3333722252","osm_id":3333722252,"name":"Waverley Road Medical Clinic","lat":-37.891,"lon":145.185774,"state":"VIC","suburb":"","postcode":"","address":"VIC","phone":"","website":"","hours":"","type":"gp","bulk_billing":"unknown"},{"id":"mr-cao-s-chinese-medicine-clinic-3376061307","osm_id":3376061307,"name":"Mr Cao's Chinese Medicine Clinic","lat":-37.76042,"lon":145.000152,"state":"VIC","suburb":"Thornbury","postcode":"3071","address":"675a, High Street, Thornbury, VIC, 3071","phone":"+61 3 9484 5514","website":"http://www.drcaochinesemedicine.com.au/","hours":"","type":"gp","bulk_billing":"unknown"},{"id":"kerrie-road-family-medical-centre-3382223730","osm_id":3382223730,"name":"Kerrie Road Family Medical Centre","lat":-37.875745,"lon":145.177535,"state":"VIC","suburb":"Glen Waverley","postcode":"3150","address":"880, High Street Road, Glen Waverley, VIC, 3150","phone":"+61 3 9803 1022","website":"https://www.kerrieroadmedical.com.au/","hours":"Mo-Fr 09:00-17:30","type":"gp","bulk_billing":"unknown"},{"id":"summit-medical-group-3383772367","osm_id":3383772367,"name":"Summit Medical Group","lat":-37.756137,"lon":144.963869,"state":"VIC","suburb":"","postcode":"","address":"853, Sydney Road, VIC","phone":"+61 3 9923 7888","website":"","hours":"","type":"gp","bulk_billing":"unknown"},{"id":"fairhills-medical-centre-3390465541","osm_id":3390465541,"name":"Fairhills Medical Centre","lat":-37.876737,"lon":145.167598,"state":"VIC","suburb":"","postcode":"","address":"VIC","phone":"","website":"","hours":"","type":"gp","bulk_billing":"unknown"},{"id":"bell-street-family-medical-centre-3401507615","osm_id":3401507615,"name":"Bell Street Family Medical Centre","lat":-37.73923,"lon":144.947009,"state":"VIC","suburb":"","postcode":"","address":"364, Bell Street, VIC","phone":"+61 3 9355 7077","website":"","hours":"","type":"gp","bulk_billing":"unknown"},{"id":"glenmount-medical-clinic-3409774781","osm_id":3409774781,"name":"Glenmount Medical Clinic","lat":-37.872867,"lon":145.150608,"state":"VIC","suburb":"","postcode":"","address":"VIC","phone":"","website":"","hours":"","type":"gp","bulk_billing":"unknown"},{"id":"belgrave-surgicentre-3436561037","osm_id":3436561037,"name":"Belgrave SurgiCentre","lat":-37.909216,"lon":145.354081,"state":"VIC","suburb":"","postcode":"","address":"1651, Burwood Highway, VIC","phone":"+61 3 9754 7555","website":"https://www.belgravesurgicentre.com/","hours":"Mo 11:00-18:00; Tu 08:30-17:00; Th 08:30-13:00; Fr 08:30-15:00","type":"gp","bulk_billing":"unknown"},{"id":"south-east-colorectal-3511431294","osm_id":3511431294,"name":"South East Colorectal","lat":-37.977707,"lon":145.220164,"state":"VIC","suburb":"","postcode":"","address":"VIC","phone":"","website":"","hours":"","type":"gp","bulk_billing":"unknown"},{"id":"belmore-road-medical-centre-3591175893","osm_id":3591175893,"name":"Belmore Road Medical Centre","lat":-37.802516,"lon":145.104024,"state":"VIC","suburb":"","postcode":"","address":"VIC","phone":"","website":"","hours":"Mo-Fr 08:30-17:00","type":"gp","bulk_billing":"unknown"},{"id":"edens-rise-family-clinic-3606398954","osm_id":3606398954,"name":"Edens Rise Family Clinic","lat":-38.063566,"lon":145.340039,"state":"VIC","suburb":"","postcode":"","address":"VIC","phone":"","website":"http://edenrisefc.weebly.com/","hours":"","type":"gp","bulk_billing":"unknown"},{"id":"panch-health-centre-3632439275","osm_id":3632439275,"name":"Panch Health Centre","lat":-37.745398,"lon":145.007884,"state":"VIC","suburb":"","postcode":"3072","address":"300, Bell Street, VIC, 3072","phone":"","website":"https://www.yourch.org.au/","hours":"","type":"gp","bulk_billing":"unknown"},{"id":"glen-union-medical-centre-3656183049","osm_id":3656183049,"name":"Glen Union Medical Centre","lat":-37.876492,"lon":145.166806,"state":"VIC","suburb":"","postcode":"","address":"VIC","phone":"","website":"","hours":"","type":"gp","bulk_billing":"unknown"},{"id":"dorevitch-pathology-3656183053","osm_id":3656183053,"name":"Dorevitch Pathology","lat":-37.876301,"lon":145.166873,"state":"VIC","suburb":"","postcode":"","address":"VIC","phone":"","website":"https://www.dorevitch.com.au/","hours":"","type":"gp","bulk_billing":"unknown"},{"id":"waverley-eye-clinic-3656183055","osm_id":3656183055,"name":"Waverley Eye Clinic","lat":-37.876708,"lon":145.166777,"state":"VIC","suburb":"","postcode":"","address":"VIC","phone":"","website":"","hours":"","type":"gp","bulk_billing":"unknown"},{"id":"glen-waverley-imaging-3656183093","osm_id":3656183093,"name":"Glen Waverley Imaging","lat":-37.876064,"lon":145.166938,"state":"VIC","suburb":"","postcode":"","address":"VIC","phone":"","website":"","hours":"","type":"gp","bulk_billing":"unknown"},{"id":"dynamic-health-osteopathy-3704220016","osm_id":3704220016,"name":"Dynamic Health Osteopathy","lat":-37.711589,"lon":145.082241,"state":"VIC","suburb":"","postcode":"","address":"23, Watsonia Road, VIC","phone":"+61 3 9439 5342","website":"https://www.dynamichealthosteo.com.au/","hours":"","type":"gp","bulk_billing":"unknown"},{"id":"watsonia-road-medical-centre-3704224025","osm_id":3704224025,"name":"Watsonia Road Medical Centre","lat":-37.711663,"lon":145.082225,"state":"VIC","suburb":"","postcode":"","address":"19, Watsonia Road, VIC","phone":"+61 3 9435 0711","website":"https://www.grs.net.au/","hours":"","type":"gp","bulk_billing":"unknown"},{"id":"plenty-road-medical-clinic-3716323392","osm_id":3716323392,"name":"Plenty Road Medical Clinic","lat":-37.693772,"lon":145.06082,"state":"VIC","suburb":"","postcode":"","address":"105, Plenty Road, VIC","phone":"","website":"","hours":"","type":"gp","bulk_billing":"unknown"},{"id":"beacon-cove-medical-centre-3733057123","osm_id":3733057123,"name":"Beacon Cove Medical Centre","lat":-37.840684,"lon":144.933059,"state":"VIC","suburb":"Port Melbourne","postcode":"3207","address":"101, Beach Street, Port Melbourne, VIC, 3207","phone":"","website":"http://www.beaconcovemc.com.au/do/home","hours":"","type":"gp","bulk_billing":"unknown"},{"id":"endeavour-hills-medical-centre-3758811173","osm_id":3758811173,"name":"Endeavour Hills Medical Centre","lat":-37.976166,"lon":145.260255,"state":"VIC","suburb":"Endeavour Hills","postcode":"3802","address":"Shop 66, 92, Matthew Flinders Avenue, Endeavour Hills, VIC, 3802","phone":"+61 3 9700 7777","website":"https://endeavourhillsmedical.com.au/","hours":"Mo-Fr 08:30-18:00; Sa 09:00-12:00","type":"gp","bulk_billing":"unknown"},{"id":"jells-road-medical-clinic-3768722927","osm_id":3768722927,"name":"Jells Road Medical Clinic","lat":-37.908482,"lon":145.188306,"state":"VIC","suburb":"","postcode":"","address":"VIC","phone":"","website":"","hours":"","type":"gp","bulk_billing":"unknown"},{"id":"korumburra-medical-centre-3819971951","osm_id":3819971951,"name":"Korumburra Medical Centre","lat":-38.434484,"lon":145.818934,"state":"VIC","suburb":"","postcode":"","address":"VIC","phone":"","website":"https://www.korumburramedical.com.au/","hours":"","type":"gp","bulk_billing":"unknown"},{"id":"mr-william-edwards-3881388125","osm_id":3881388125,"name":"Mr William Edwards","lat":-37.818144,"lon":144.994487,"state":"VIC","suburb":"","postcode":"","address":"VIC","phone":"","website":"https://www.davidlawrence.com.au/","hours":"","type":"gp","bulk_billing":"unknown"},{"id":"keilor-medical-clinic-3902455806","osm_id":3902455806,"name":"Keilor Medical Clinic","lat":-37.723599,"lon":144.806629,"state":"VIC","suburb":"","postcode":"","address":"VIC","phone":"","website":"","hours":"","type":"gp","bulk_billing":"unknown"},{"id":"plaza-medical-centre-3902456458","osm_id":3902456458,"name":"Plaza Medical Centre","lat":-37.726789,"lon":144.806608,"state":"VIC","suburb":"","postcode":"","address":"VIC","phone":"","website":"","hours":"","type":"gp","bulk_billing":"unknown"},{"id":"wheelers-hill-clinic-3933542466","osm_id":3933542466,"name":"Wheelers Hill Clinic","lat":-37.906098,"lon":145.186816,"state":"VIC","suburb":"","postcode":"","address":"VIC","phone":"","website":"","hours":"","type":"gp","bulk_billing":"unknown"},{"id":"victoria-harbour-medical-centre-3946730971","osm_id":3946730971,"name":"Victoria Harbour Medical Centre","lat":-37.820739,"lon":144.944338,"state":"VIC","suburb":"Docklands","postcode":"3008","address":"850, Collins Street, Docklands, VIC, 3008","phone":"+61 3 9629 1414","website":"https://www.victoriaharbourmedicalcentre.com.au/","hours":"","type":"gp","bulk_billing":"unknown"},{"id":"north-fitzroy-specialist-centre-3949687609","osm_id":3949687609,"name":"North Fitzroy Specialist Centre","lat":-37.790865,"lon":144.979923,"state":"VIC","suburb":"Fitzroy North","postcode":"3068","address":"544, Brunswick Street, Fitzroy North, VIC, 3068","phone":"","website":"","hours":"","type":"gp","bulk_billing":"unknown"},{"id":"campbellfield-medical-centre-3953229693","osm_id":3953229693,"name":"Campbellfield Medical Centre","lat":-37.687452,"lon":144.959422,"state":"VIC","suburb":"","postcode":"","address":"Shop 1A, Hume Highway, VIC","phone":"+61 3 9359 6671","website":"","hours":"","type":"gp","bulk_billing":"unknown"},{"id":"the-one-massage-3953229706","osm_id":3953229706,"name":"The One Massage","lat":-37.688549,"lon":144.959526,"state":"VIC","suburb":"","postcode":"","address":"VIC","phone":"+61 3 9359 1885","website":"","hours":"","type":"gp","bulk_billing":"unknown"},{"id":"lilydale-medical-centre-3989163195","osm_id":3989163195,"name":"Lilydale Medical Centre","lat":-37.756938,"lon":145.355443,"state":"VIC","suburb":"","postcode":"","address":"VIC","phone":"","website":"","hours":"","type":"gp","bulk_billing":"unknown"},{"id":"dr-alice-huang-4005113389","osm_id":4005113389,"name":"Dr Alice Huang","lat":-37.808715,"lon":144.983742,"state":"VIC","suburb":"","postcode":"","address":"33, Victoria Parade, VIC","phone":"+61 3 9417 1088","website":"https://dralicehuang.com.au/","hours":"","type":"gp","bulk_billing":"unknown"},{"id":"medical-clinic-4041048214","osm_id":4041048214,"name":"Medical Clinic","lat":-37.948793,"lon":145.153271,"state":"VIC","suburb":"","postcode":"","address":"5, 275-277, Springvale Road, VIC","phone":"","website":"","hours":"","type":"gp","bulk_billing":"unknown"},{"id":"denture-clinic-4060933074","osm_id":4060933074,"name":"Denture Clinic","lat":-37.882585,"lon":144.699924,"state":"VIC","suburb":"","postcode":"","address":"VIC","phone":"","website":"","hours":"","type":"gp","bulk_billing":"unknown"},{"id":"valewood-clinic-4061413479","osm_id":4061413479,"name":"Valewood Clinic","lat":-37.919828,"lon":145.164363,"state":"VIC","suburb":"","postcode":"","address":"VIC","phone":"","website":"https://valewoodclinic.com.au/","hours":"","type":"gp","bulk_billing":"unknown"},{"id":"dingley-eye-centre-4064509730","osm_id":4064509730,"name":"Dingley Eye Centre","lat":-37.984415,"lon":145.133356,"state":"VIC","suburb":"","postcode":"","address":"VIC","phone":"","website":"","hours":"","type":"gp","bulk_billing":"unknown"},{"id":"bellfield-medical-centre-4064596500","osm_id":4064596500,"name":"Bellfield Medical Centre","lat":-37.74989,"lon":145.039727,"state":"VIC","suburb":"","postcode":"","address":"337, Bell Street, VIC","phone":"","website":"","hours":"","type":"gp","bulk_billing":"unknown"},{"id":"dorevitch-pathology-4070568033","osm_id":4070568033,"name":"Dorevitch Pathology","lat":-37.8333,"lon":145.156935,"state":"VIC","suburb":"Blackburn South","postcode":"3130","address":"204, Canterbury Road, Blackburn South, VIC, 3130","phone":"","website":"","hours":"","type":"gp","bulk_billing":"unknown"},{"id":"kingston-eye-clinic-4077652535","osm_id":4077652535,"name":"Kingston Eye Clinic","lat":-37.969476,"lon":145.054588,"state":"VIC","suburb":"","postcode":"","address":"225, Charman Road, VIC","phone":"","website":"","hours":"","type":"gp","bulk_billing":"unknown"},{"id":"inner-strength-4077652561","osm_id":4077652561,"name":"Inner Strength","lat":-37.968778,"lon":145.055205,"state":"VIC","suburb":"","postcode":"","address":"254, Charman Road, VIC","phone":"","website":"","hours":"","type":"gp","bulk_billing":"unknown"},{"id":"nepean-family-medical-centre-4101028549","osm_id":4101028549,"name":"Nepean Family Medical Centre","lat":-37.932849,"lon":145.030819,"state":"VIC","suburb":"Hampton East","postcode":"3188","address":"320, South Road, Hampton East, VIC, 3188","phone":"+61 3 9553 4777","website":"http://www.nepeanfamilymedicalcentre.com.au","hours":"Mo 08:00-20:00; Tu 09:00-20:00; We 09:00-17:30; Th 08:00-17:30; Fr 08:30-17:30; Sa 09:00-12:00","type":"gp","bulk_billing":"unknown"},{"id":"deepdene-medical-centre-4196345589","osm_id":4196345589,"name":"Deepdene Medical Centre","lat":-37.810784,"lon":145.06522,"state":"VIC","suburb":"","postcode":"","address":"77, Whitehorse Road, VIC","phone":"","website":"","hours":"","type":"gp","bulk_billing":"unknown"},{"id":"chiro-life-4203700189","osm_id":4203700189,"name":"Chiro Life","lat":-37.789411,"lon":145.166554,"state":"VIC","suburb":"","postcode":"","address":"VIC","phone":"","website":"","hours":"","type":"gp","bulk_billing":"unknown"},{"id":"remedial-massage-4203700196","osm_id":4203700196,"name":"Remedial Massage","lat":-37.812946,"lon":145.176472,"state":"VIC","suburb":"","postcode":"","address":"VIC","phone":"","website":"","hours":"","type":"gp","bulk_billing":"unknown"},{"id":"moores-road-medical-centre-4206825200","osm_id":4206825200,"name":"Moores Road Medical Centre","lat":-37.875285,"lon":145.409334,"state":"VIC","suburb":"Monbulk","postcode":"","address":"5, Moores Road, Monbulk, VIC","phone":"+61 3 9752 1087","website":"https://www.mooresroadmedicalcentre.com.au/","hours":"Mo-Th 08:30-19:00; Fr 08:30-18:00; Sa 09:00-13:00","type":"gp","bulk_billing":"unknown"},{"id":"brunswick-central-medical-centre-4213481950","osm_id":4213481950,"name":"Brunswick Central Medical Centre","lat":-37.773108,"lon":144.961289,"state":"VIC","suburb":"","postcode":"","address":"1, 200, Sydney Road, VIC","phone":"+61 3 9381 1300","website":"https://www.brunswickcentralmedical.com.au/","hours":"","type":"gp","bulk_billing":"unknown"},{"id":"pvh-medical-4230118826","osm_id":4230118826,"name":"PVH Medical","lat":-37.71996,"lon":144.939349,"state":"VIC","suburb":"Pascoe Vale","postcode":"3044","address":"124, Kent Road, Pascoe Vale, VIC, 3044","phone":"","website":"https://www.pvhmedical.com.au/","hours":"","type":"gp","bulk_billing":"unknown"},{"id":"dr-johannes-kern-4248321541","osm_id":4248321541,"name":"Dr Johannes Kern","lat":-37.813697,"lon":144.973227,"state":"VIC","suburb":"Melbourne","postcode":"3000","address":"15, Collins Street, Melbourne, VIC, 3000","phone":"","website":"","hours":"","type":"gp","bulk_billing":"unknown"},{"id":"sandringham-medical-centre-4256809601","osm_id":4256809601,"name":"Sandringham Medical Centre","lat":-37.951815,"lon":145.006934,"state":"VIC","suburb":"Sandringham","postcode":"3191","address":"39, Bay Road, Sandringham, VIC, 3191","phone":"","website":"","hours":"","type":"gp","bulk_billing":"unknown"},{"id":"collins-st-medical-center-4269463949","osm_id":4269463949,"name":"Collins St Medical Center","lat":-37.816109,"lon":144.965076,"state":"VIC","suburb":"Melbourne","postcode":"3000","address":"267, Collins Street, Melbourne, VIC, 3000","phone":"","website":"","hours":"","type":"gp","bulk_billing":"unknown"},{"id":"chinese-medicine-4294010020","osm_id":4294010020,"name":"Chinese Medicine","lat":-37.775398,"lon":144.948988,"state":"VIC","suburb":"","postcode":"","address":"VIC","phone":"","website":"","hours":"","type":"gp","bulk_billing":"unknown"},{"id":"osteopath-4294010021","osm_id":4294010021,"name":"Osteopath","lat":-37.775333,"lon":144.948999,"state":"VIC","suburb":"","postcode":"","address":"VIC","phone":"","website":"","hours":"","type":"gp","bulk_billing":"unknown"},{"id":"4cyte-pathology-4308263750","osm_id":4308263750,"name":"4Cyte Pathology","lat":-37.846779,"lon":144.992433,"state":"VIC","suburb":"","postcode":"3181","address":"182, Commercial Road, VIC, 3181","phone":"","website":"","hours":"","type":"sample_collection","bulk_billing":"unknown"},{"id":"dr-daniel-traum-4308263761","osm_id":4308263761,"name":"Dr Daniel Traum","lat":-37.853047,"lon":145.041811,"state":"VIC","suburb":"","postcode":"","address":"VIC","phone":"","website":"","hours":"","type":"gp","bulk_billing":"unknown"},{"id":"private-consulting-rooms-4365827751","osm_id":4365827751,"name":"Private Consulting Rooms","lat":-37.794502,"lon":144.949654,"state":"VIC","suburb":"Parkville","postcode":"3052","address":"2, 20, Flemington Road, Parkville, VIC, 3052","phone":"","website":"https://www.drpeterjurcevic.com.au/","hours":"Mo-Fr 09:00-17:00","type":"gp","bulk_billing":"unknown"},{"id":"merrindale-medical-centre-4373595106","osm_id":4373595106,"name":"Merrindale Medical Centre","lat":-37.816051,"lon":145.287363,"state":"VIC","suburb":"","postcode":"","address":"516, Dorset Road, VIC","phone":"","website":"","hours":"","type":"gp","bulk_billing":"unknown"},{"id":"banksia-medical-centre-4448676090","osm_id":4448676090,"name":"Banksia Medical Centre","lat":-38.173317,"lon":144.399683,"state":"VIC","suburb":"","postcode":"","address":"VIC","phone":"","website":"","hours":"Mo-Fr 09:00-17:30","type":"gp","bulk_billing":"unknown"},{"id":"brighton-family-women-s-clinic-4466277337","osm_id":4466277337,"name":"Brighton Family & Women's Clinic","lat":-37.919648,"lon":145.022356,"state":"VIC","suburb":"Brighton East","postcode":"3187","address":"767, Nepean Highway, Brighton East, VIC, 3187","phone":"","website":"https://www.brightonfwc.com.au/","hours":"","type":"gp","bulk_billing":"unknown"},{"id":"victoria-street-medical-group-4592054057","osm_id":4592054057,"name":"Victoria Street Medical Group","lat":-37.767082,"lon":144.961513,"state":"VIC","suburb":"Brunswick","postcode":"3056","address":"318, Victoria Street, Brunswick, VIC, 3056","phone":"","website":"https://www.victoriastreetmedicalgroup.com.au/","hours":"","type":"gp","bulk_billing":"unknown"},{"id":"cardigan-house-consulting-suites-4631035395","osm_id":4631035395,"name":"Cardigan House Consulting Suites","lat":-37.800463,"lon":144.966041,"state":"VIC","suburb":"Carlton","postcode":"3053","address":"96, Cardigan Street, Carlton, VIC, 3053","phone":"","website":"","hours":"","type":"gp","bulk_billing":"unknown"},{"id":"doctors-on-broadway-4643404590","osm_id":4643404590,"name":"Doctors On Broadway","lat":-37.717048,"lon":145.011884,"state":"VIC","suburb":"","postcode":"","address":"VIC","phone":"","website":"","hours":"","type":"gp","bulk_billing":"unknown"},{"id":"broadway-medical-4643411567","osm_id":4643411567,"name":"Broadway Medical","lat":-37.716941,"lon":145.008424,"state":"VIC","suburb":"","postcode":"","address":"VIC","phone":"","website":"","hours":"","type":"gp","bulk_billing":"unknown"},{"id":"loch-sport-medical-centre-4658210332","osm_id":4658210332,"name":"Loch Sport Medical Centre","lat":-38.050414,"lon":147.577591,"state":"VIC","suburb":"","postcode":"","address":"VIC","phone":"","website":"","hours":"","type":"gp","bulk_billing":"unknown"},{"id":"inspired-health-chiropractic-4681170667","osm_id":4681170667,"name":"Inspired Health Chiropractic","lat":-37.830965,"lon":144.843445,"state":"VIC","suburb":"","postcode":"","address":"VIC","phone":"","website":"","hours":"","type":"gp","bulk_billing":"unknown"},{"id":"henderson-medical-clinic-4688584802","osm_id":4688584802,"name":"Henderson Medical Clinic","lat":-37.982113,"lon":145.164838,"state":"VIC","suburb":"","postcode":"","address":"VIC","phone":"","website":"","hours":"","type":"gp","bulk_billing":"unknown"},{"id":"errol-street-medical-centre-4735688173","osm_id":4735688173,"name":"Errol Street Medical Centre","lat":-37.803577,"lon":144.949316,"state":"VIC","suburb":"North Melbourne","postcode":"3051","address":"65, Errol Street, North Melbourne, VIC, 3051","phone":"+61 3 9329 7011","website":"","hours":"Mo-Fr 06:00-21:00; Sa 09:00-14:00; Su off; PH off","type":"gp","bulk_billing":"unknown"},{"id":"errol-street-spinal-sport-therapy-4740799234","osm_id":4740799234,"name":"Errol Street Spinal & Sport Therapy","lat":-37.803895,"lon":144.949701,"state":"VIC","suburb":"North Melbourne","postcode":"3051","address":"52, Errol Street, North Melbourne, VIC, 3051","phone":"+61 3 9329 9988","website":"https://www.errolstphysio.com.au/","hours":"Mo-Fr 08:00-19:00; Sa 08:00-13:00; Su, PH off","type":"gp","bulk_billing":"unknown"},{"id":"melbourne-dental-xray-4773949382","osm_id":4773949382,"name":"Melbourne Dental Xray","lat":-37.800778,"lon":144.963711,"state":"VIC","suburb":"","postcode":"","address":"VIC","phone":"","website":"","hours":"","type":"gp","bulk_billing":"unknown"},{"id":"capital-radiology-frankston-4787230347","osm_id":4787230347,"name":"Capital Radiology Frankston","lat":-38.142362,"lon":145.130897,"state":"VIC","suburb":"","postcode":"","address":"59, Beach Street, VIC","phone":"+61 3 8770 7988","website":"https://www.capitalradiology.com.au/","hours":"Mo-Fr 08:30-17:30","type":"gp","bulk_billing":"unknown"},{"id":"briar-hill-family-medical-centre-4787380953","osm_id":4787380953,"name":"Briar Hill Family Medical Centre","lat":-37.710953,"lon":145.117033,"state":"VIC","suburb":"","postcode":"","address":"2, 18, Sherbourne Road, VIC","phone":"+61 3 9432 1494;+61 3 9432 4395","website":"https://healthengine.com.au/medical-centre/vic/briar-hill/briar-hill-family-medical-centre/s64230","hours":"Mo-Fr 09:00-17:00; PH off","type":"gp","bulk_billing":"unknown"},{"id":"balwyn-central-medical-4796207987","osm_id":4796207987,"name":"Balwyn Central Medical","lat":-37.812988,"lon":145.083775,"state":"VIC","suburb":"Balwyn","postcode":"3103","address":"411, Whitehorse Road, Balwyn, VIC, 3103","phone":"","website":"","hours":"","type":"gp","bulk_billing":"unknown"},{"id":"meadows-medical-centre-4901271939","osm_id":4901271939,"name":"Meadows Medical Centre","lat":-37.873376,"lon":144.786866,"state":"VIC","suburb":"Altona Meadows","postcode":"3028","address":"311, Queen Street, Altona Meadows, VIC, 3028","phone":"","website":"","hours":"","type":"gp","bulk_billing":"unknown"},{"id":"yarraville-medical-centre-4905647507","osm_id":4905647507,"name":"Yarraville Medical Centre","lat":-37.816505,"lon":144.88811,"state":"VIC","suburb":"Yarraville","postcode":"3013","address":"93, Anderson Street, Yarraville, VIC, 3013","phone":"","website":"","hours":"","type":"gp","bulk_billing":"unknown"},{"id":"cockatoo-family-medical-practice-4959543506","osm_id":4959543506,"name":"Cockatoo Family Medical Practice","lat":-37.936072,"lon":145.492863,"state":"VIC","suburb":"Cockatoo","postcode":"3781","address":"1, 54, McBride Street, Cockatoo, VIC, 3781","phone":"+61 3 5968 8653","website":"","hours":"","type":"gp","bulk_billing":"unknown"},{"id":"the-surgery-5076265971","osm_id":5076265971,"name":"The Surgery","lat":-37.762997,"lon":145.084513,"state":"VIC","suburb":"","postcode":"","address":"VIC","phone":"","website":"","hours":"","type":"gp","bulk_billing":"unknown"},{"id":"mount-street-medical-centre-5076265973","osm_id":5076265973,"name":"Mount Street Medical Centre","lat":-37.757205,"lon":145.062049,"state":"VIC","suburb":"","postcode":"","address":"VIC","phone":"","website":"","hours":"Mo-Fr 08:30-18:30; Sa 08:30-12:00; Su off","type":"gp","bulk_billing":"unknown"},{"id":"hill-crest-medical-centre-5076265979","osm_id":5076265979,"name":"Hill Crest Medical Centre","lat":-37.754568,"lon":145.055574,"state":"VIC","suburb":"","postcode":"","address":"18-22, Bell Street, VIC","phone":"","website":"","hours":"","type":"gp","bulk_billing":"unknown"},{"id":"care-family-practice-5076265980","osm_id":5076265980,"name":"Care Family Practice","lat":-37.773237,"lon":145.109069,"state":"VIC","suburb":"","postcode":"","address":"VIC","phone":"","website":"","hours":"","type":"gp","bulk_billing":"unknown"},{"id":"doncaster-east-family-practice-5076265991","osm_id":5076265991,"name":"Doncaster East Family Practice","lat":-37.788988,"lon":145.163369,"state":"VIC","suburb":"","postcode":"","address":"1045, Doncaster Road, VIC","phone":"","website":"","hours":"","type":"gp","bulk_billing":"unknown"},{"id":"ezy-health-5076265995","osm_id":5076265995,"name":"Ezy Health","lat":-37.87563,"lon":145.166978,"state":"VIC","suburb":"","postcode":"","address":"VIC","phone":"","website":"","hours":"","type":"gp","bulk_billing":"unknown"},{"id":"orthodontics-5076265997","osm_id":5076265997,"name":"Orthodontics","lat":-37.788549,"lon":145.155225,"state":"VIC","suburb":"","postcode":"","address":"VIC","phone":"","website":"","hours":"","type":"gp","bulk_billing":"unknown"},{"id":"ostopathic-clinic-5076266000","osm_id":5076266000,"name":"Ostopathic Clinic","lat":-37.751625,"lon":145.048031,"state":"VIC","suburb":"","postcode":"","address":"VIC","phone":"","website":"","hours":"","type":"gp","bulk_billing":"unknown"},{"id":"comprehensive-family-healthcare-oakleigh-east-5123921808","osm_id":5123921808,"name":"Comprehensive Family HealthCare Oakleigh East","lat":-37.91311,"lon":145.119241,"state":"VIC","suburb":"","postcode":"","address":"VIC","phone":"","website":"","hours":"Mo-Sa 08:30-17:00","type":"gp","bulk_billing":"unknown"},{"id":"sonic-health-plus-5127953778","osm_id":5127953778,"name":"Sonic Health Plus","lat":-37.975357,"lon":145.203003,"state":"VIC","suburb":"","postcode":"","address":"VIC","phone":"","website":"","hours":"","type":"gp","bulk_billing":"unknown"},{"id":"diagom-medical-centre-5127953796","osm_id":5127953796,"name":"Diagom Medical Centre","lat":-37.963386,"lon":145.189786,"state":"VIC","suburb":"","postcode":"","address":"VIC","phone":"","website":"","hours":"","type":"gp","bulk_billing":"unknown"},{"id":"family-chiro-5150706934","osm_id":5150706934,"name":"Family Chiro","lat":-37.767046,"lon":145.104675,"state":"VIC","suburb":"","postcode":"","address":"VIC","phone":"","website":"","hours":"","type":"gp","bulk_billing":"unknown"},{"id":"the-osteo-group-5150707328","osm_id":5150707328,"name":"The Osteo Group","lat":-37.742711,"lon":145.072932,"state":"VIC","suburb":"","postcode":"","address":"190, Rosanna Road, VIC","phone":"","website":"","hours":"","type":"gp","bulk_billing":"unknown"},{"id":"chiro-5151361722","osm_id":5151361722,"name":"Chiro","lat":-37.766973,"lon":145.104745,"state":"VIC","suburb":"","postcode":"","address":"VIC","phone":"","website":"","hours":"","type":"gp","bulk_billing":"unknown"},{"id":"family-doctor-5152964923","osm_id":5152964923,"name":"Family Doctor","lat":-37.785482,"lon":145.162381,"state":"VIC","suburb":"","postcode":"","address":"VIC","phone":"","website":"","hours":"","type":"gp","bulk_billing":"unknown"},{"id":"blackburn-road-medical-centre-5152972921","osm_id":5152972921,"name":"Blackburn Road Medical Centre","lat":-37.781874,"lon":145.16367,"state":"VIC","suburb":"","postcode":"","address":"VIC","phone":"","website":"","hours":"Mo-Fr 08:30-17:00; Sa 09:00-05:00","type":"gp","bulk_billing":"unknown"},{"id":"eye-clinic-laser-centre-5152973022","osm_id":5152973022,"name":"Eye Clinic Laser Centre","lat":-37.790975,"lon":145.097136,"state":"VIC","suburb":"","postcode":"","address":"VIC","phone":"","website":"","hours":"","type":"gp","bulk_billing":"unknown"},{"id":"chiropractor-5152974421","osm_id":5152974421,"name":"Chiropractor","lat":-37.776928,"lon":145.103883,"state":"VIC","suburb":"","postcode":"","address":"VIC","phone":"","website":"","hours":"","type":"gp","bulk_billing":"unknown"},{"id":"springvale-south-medical-centre-5187993659","osm_id":5187993659,"name":"Springvale South Medical Centre","lat":-37.961747,"lon":145.142586,"state":"VIC","suburb":"","postcode":"","address":"VIC","phone":"","website":"","hours":"","type":"gp","bulk_billing":"unknown"},{"id":"oakleigh-family-medical-centre-5195329097","osm_id":5195329097,"name":"Oakleigh Family Medical Centre","lat":-37.898942,"lon":145.09265,"state":"VIC","suburb":"","postcode":"","address":"63, Atherton Road, VIC","phone":"","website":"","hours":"","type":"gp","bulk_billing":"unknown"},{"id":"oakleigh-general-practice-5195329120","osm_id":5195329120,"name":"Oakleigh General Practice","lat":-37.900718,"lon":145.087753,"state":"VIC","suburb":"","postcode":"","address":"VIC","phone":"","website":"","hours":"","type":"gp","bulk_billing":"unknown"},{"id":"family-medical-practice-5195471023","osm_id":5195471023,"name":"Family Medical Practice","lat":-37.940861,"lon":145.153979,"state":"VIC","suburb":"","postcode":"","address":"84, Springvale Road, VIC","phone":"+61 3 9540 3666","website":"","hours":"","type":"gp","bulk_billing":"unknown"},{"id":"sunspot-skin-cancer-clinic-5197596133","osm_id":5197596133,"name":"Sunspot Skin Cancer Clinic","lat":-37.885135,"lon":145.063699,"state":"VIC","suburb":"","postcode":"","address":"VIC","phone":"","website":"","hours":"","type":"gp","bulk_billing":"unknown"},{"id":"dr-sophy-nuin-5203746976","osm_id":5203746976,"name":"Dr Sophy Nuin","lat":-37.949556,"lon":145.150329,"state":"VIC","suburb":"","postcode":"","address":"VIC","phone":"","website":"","hours":"","type":"gp","bulk_billing":"unknown"},{"id":"dr-peter-pereira-5203746990","osm_id":5203746990,"name":"Dr Peter Pereira","lat":-37.948694,"lon":145.150629,"state":"VIC","suburb":"","postcode":"","address":"VIC","phone":"","website":"","hours":"","type":"gp","bulk_billing":"unknown"},{"id":"medical-centre-5203746996","osm_id":5203746996,"name":"Medical Centre","lat":-37.951579,"lon":145.150642,"state":"VIC","suburb":"","postcode":"","address":"7, Windsor Avenue, VIC","phone":"","website":"","hours":"","type":"gp","bulk_billing":"unknown"},{"id":"dr-le-tung-thai-luong-5203747001","osm_id":5203747001,"name":"Dr Le Tung & Thai Luong","lat":-37.949566,"lon":145.150507,"state":"VIC","suburb":"","postcode":"","address":"2, 14, Balmoral Avenue, VIC","phone":"+61 3 9546 5155","website":"","hours":"","type":"gp","bulk_billing":"unknown"},{"id":"clinic-dr-le-kim-thu-5203791309","osm_id":5203791309,"name":"Clinic Dr. Le Kim Thu","lat":-37.951481,"lon":145.150314,"state":"VIC","suburb":"","postcode":"","address":"11, Windsor Avenue, VIC","phone":"","website":"","hours":"","type":"gp","bulk_billing":"unknown"},{"id":"dr-penny-wong-5205889291","osm_id":5205889291,"name":"Dr Penny Wong","lat":-37.897081,"lon":145.163274,"state":"VIC","suburb":"","postcode":"","address":"VIC","phone":"","website":"","hours":"","type":"gp","bulk_billing":"unknown"},{"id":"dr-ivor-berman-5205889294","osm_id":5205889294,"name":"Dr Ivor Berman","lat":-37.880293,"lon":145.166267,"state":"VIC","suburb":"","postcode":"","address":"VIC","phone":"","website":"","hours":"","type":"gp","bulk_billing":"unknown"},{"id":"advanced-chiropractic-5211390922","osm_id":5211390922,"name":"Advanced Chiropractic","lat":-37.929312,"lon":145.156244,"state":"VIC","suburb":"","postcode":"","address":"VIC","phone":"","website":"","hours":"","type":"gp","bulk_billing":"unknown"},{"id":"surgery-dr-sang-chung-5213706351","osm_id":5213706351,"name":"Surgery Dr Sang Chung","lat":-37.952709,"lon":145.151978,"state":"VIC","suburb":"Springvale","postcode":"3171","address":"296A, Springvale Road, Springvale, VIC, 3171","phone":"","website":"","hours":"","type":"gp","bulk_billing":"unknown"},{"id":"hui-hui-chinese-acupuncture-5213706356","osm_id":5213706356,"name":"Hui Hui Chinese Acupuncture","lat":-37.954531,"lon":145.151362,"state":"VIC","suburb":"","postcode":"","address":"1, 4, VIC","phone":"","website":"","hours":"","type":"gp","bulk_billing":"unknown"},{"id":"natural-harmony-acupuncture-chinese-medical-centre-5213707924","osm_id":5213707924,"name":"Natural Harmony Acupuncture & Chinese Medical Centre","lat":-37.954225,"lon":145.152185,"state":"VIC","suburb":"","postcode":"","address":"379, Springvale Road, VIC","phone":"","website":"","hours":"","type":"gp","bulk_billing":"unknown"},{"id":"springvale-family-healthcare-5213728804","osm_id":5213728804,"name":"Springvale Family Healthcare","lat":-37.957462,"lon":145.150904,"state":"VIC","suburb":"","postcode":"","address":"346, Springvale Road, VIC","phone":"","website":"","hours":"","type":"gp","bulk_billing":"unknown"},{"id":"clinique-mediterranean-5222790820","osm_id":5222790820,"name":"Clinique Mediterranean","lat":-37.67351,"lon":145.017623,"state":"VIC","suburb":"","postcode":"","address":"VIC","phone":"","website":"","hours":"","type":"gp","bulk_billing":"unknown"},{"id":"pain-clinic-oakleigh-5226430438","osm_id":5226430438,"name":"Pain Clinic Oakleigh","lat":-37.899444,"lon":145.088699,"state":"VIC","suburb":"","postcode":"","address":"VIC","phone":"","website":"","hours":"","type":"gp","bulk_billing":"unknown"},{"id":"family-doctor-peter-lim-5230085162","osm_id":5230085162,"name":"Family Doctor Peter Lim","lat":-37.966248,"lon":145.179558,"state":"VIC","suburb":"","postcode":"","address":"VIC","phone":"","website":"","hours":"","type":"gp","bulk_billing":"unknown"},{"id":"athol-road-medical-centre-5241970305","osm_id":5241970305,"name":"Athol Road Medical Centre","lat":-37.970957,"lon":145.149191,"state":"VIC","suburb":"","postcode":"","address":"VIC","phone":"","website":"","hours":"","type":"gp","bulk_billing":"unknown"},{"id":"southern-cross-care-5241970306","osm_id":5241970306,"name":"Southern Cross Care","lat":-37.969547,"lon":145.148115,"state":"VIC","suburb":"","postcode":"","address":"VIC","phone":"","website":"","hours":"","type":"gp","bulk_billing":"unknown"},{"id":"capital-radiology-5242024727","osm_id":5242024727,"name":"Capital Radiology","lat":-37.928092,"lon":145.117105,"state":"VIC","suburb":"Clayton","postcode":"3168","address":"1383, Centre Road, Clayton, VIC, 3168","phone":"","website":"","hours":"","type":"gp","bulk_billing":"unknown"},{"id":"sports-spinal-5242024814","osm_id":5242024814,"name":"Sports & Spinal","lat":-37.928559,"lon":145.117073,"state":"VIC","suburb":"","postcode":"","address":"1320, Centre Road, VIC","phone":"","website":"","hours":"","type":"gp","bulk_billing":"unknown"},{"id":"amc-5242329398","osm_id":5242329398,"name":"AMC","lat":-37.731254,"lon":144.741913,"state":"VIC","suburb":"","postcode":"","address":"VIC","phone":"","website":"","hours":"","type":"gp","bulk_billing":"unknown"},{"id":"advance-healthcare-5242329400","osm_id":5242329400,"name":"Advance Healthcare","lat":-37.74121,"lon":144.798618,"state":"VIC","suburb":"","postcode":"","address":"VIC","phone":"","website":"","hours":"","type":"gp","bulk_billing":"unknown"},{"id":"melbourne-laser-derm-clinic-5248293310","osm_id":5248293310,"name":"Melbourne Laser Derm Clinic","lat":-37.898629,"lon":145.088394,"state":"VIC","suburb":"","postcode":"","address":"3, 10A, Atherton Road, VIC","phone":"","website":"","hours":"","type":"gp","bulk_billing":"unknown"},{"id":"chiropractor-dr-john-adamopoulos-5248293352","osm_id":5248293352,"name":"Chiropractor Dr. John Adamopoulos","lat":-37.898721,"lon":145.088573,"state":"VIC","suburb":"","postcode":"","address":"VIC","phone":"","website":"","hours":"","type":"gp","bulk_billing":"unknown"},{"id":"union-medical-centre-5250056707","osm_id":5250056707,"name":"Union Medical Centre","lat":-37.961501,"lon":145.151003,"state":"VIC","suburb":"","postcode":"","address":"471, Springvale Road, VIC","phone":"","website":"","hours":"","type":"gp","bulk_billing":"unknown"},{"id":"dr-jessica-ho-5250056708","osm_id":5250056708,"name":"Dr. Jessica Ho","lat":-37.958812,"lon":145.150703,"state":"VIC","suburb":"","postcode":"","address":"VIC","phone":"","website":"","hours":"","type":"gp","bulk_billing":"unknown"},{"id":"366-specialist-nedical-centre-5250056710","osm_id":5250056710,"name":"366 Specialist Nedical Centre","lat":-37.959171,"lon":145.15055,"state":"VIC","suburb":"","postcode":"","address":"VIC","phone":"","website":"","hours":"","type":"gp","bulk_billing":"unknown"},{"id":"siew-c-k-general-practice-5253887820","osm_id":5253887820,"name":"Siew C K General Practice","lat":-37.950612,"lon":145.142356,"state":"VIC","suburb":"","postcode":"","address":"41A, Windsor Avenue, VIC","phone":"","website":"","hours":"","type":"gp","bulk_billing":"unknown"},{"id":"chiro-5257210631","osm_id":5257210631,"name":"Chiro","lat":-37.899009,"lon":145.103308,"state":"VIC","suburb":"","postcode":"","address":"VIC","phone":"","website":"","hours":"","type":"gp","bulk_billing":"unknown"},{"id":"mgic-5257210634","osm_id":5257210634,"name":"MGIC","lat":-37.900442,"lon":145.105725,"state":"VIC","suburb":"","postcode":"","address":"VIC","phone":"","website":"","hours":"","type":"gp","bulk_billing":"unknown"},{"id":"total-nutrition-care-5263269546","osm_id":5263269546,"name":"Total Nutrition Care","lat":-37.890066,"lon":145.068304,"state":"VIC","suburb":"","postcode":"","address":"22, 488, Neerim Road, VIC","phone":"","website":"","hours":"","type":"gp","bulk_billing":"unknown"},{"id":"australian-hair-and-scalp-clinic-5263269571","osm_id":5263269571,"name":"Australian Hair and Scalp Clinic","lat":-37.889167,"lon":145.066478,"state":"VIC","suburb":"","postcode":"","address":"51, Murrumbeena Road, VIC","phone":"","website":"","hours":"","type":"gp","bulk_billing":"unknown"},{"id":"sleep-better-again-5263269613","osm_id":5263269613,"name":"Sleep Better Again","lat":-37.889255,"lon":145.066466,"state":"VIC","suburb":"Murrumbeena","postcode":"3163","address":"53, Murrumbeena Road, Murrumbeena, VIC, 3163","phone":"1300 244 222","website":"","hours":"","type":"gp","bulk_billing":"unknown"},{"id":"chadstone-clinic-5265627121","osm_id":5265627121,"name":"Chadstone Clinic","lat":-37.891846,"lon":145.084943,"state":"VIC","suburb":"","postcode":"","address":"VIC","phone":"","website":"","hours":"","type":"gp","bulk_billing":"unknown"},{"id":"myotherapist-5265680464","osm_id":5265680464,"name":"Myotherapist","lat":-38.175541,"lon":146.260122,"state":"VIC","suburb":"","postcode":"","address":"VIC","phone":"","website":"","hours":"","type":"gp","bulk_billing":"unknown"},{"id":"dr-peter-lim-5269011980","osm_id":5269011980,"name":"Dr Peter Lim","lat":-37.965414,"lon":145.179537,"state":"VIC","suburb":"","postcode":"","address":"VIC","phone":"","website":"","hours":"","type":"gp","bulk_billing":"unknown"},{"id":"south-eastern-plastic-surgery-5269011983","osm_id":5269011983,"name":"South Eastern Plastic Surgery","lat":-37.966882,"lon":145.190782,"state":"VIC","suburb":"","postcode":"","address":"VIC","phone":"","website":"","hours":"","type":"gp","bulk_billing":"unknown"},{"id":"eye-clinic-5269011985","osm_id":5269011985,"name":"Eye Clinic","lat":-37.962323,"lon":145.153331,"state":"VIC","suburb":"","postcode":"","address":"VIC","phone":"","website":"","hours":"","type":"gp","bulk_billing":"unknown"},{"id":"medifirst-family-clinic-5274637488","osm_id":5274637488,"name":"Medifirst Family Clinic","lat":-37.928055,"lon":145.116939,"state":"VIC","suburb":"Clayton","postcode":"3168","address":"1381, Centre Road, Clayton, VIC, 3168","phone":"","website":"","hours":"","type":"gp","bulk_billing":"unknown"},{"id":"koornang-rd-medical-centre-5283420293","osm_id":5283420293,"name":"Koornang Rd Medical Centre","lat":-37.887405,"lon":145.056975,"state":"VIC","suburb":"","postcode":"","address":"VIC","phone":"","website":"","hours":"","type":"gp","bulk_billing":"unknown"},{"id":"x-ray-clinic-5285524968","osm_id":5285524968,"name":"X-Ray Clinic","lat":-37.98164,"lon":145.211487,"state":"VIC","suburb":"","postcode":"","address":"VIC","phone":"","website":"","hours":"","type":"gp","bulk_billing":"unknown"},{"id":"dandenong-city-clinic-5285524990","osm_id":5285524990,"name":"Dandenong City Clinic","lat":-37.988985,"lon":145.21493,"state":"VIC","suburb":"","postcode":"","address":"9, Pultney Street , VIC","phone":"","website":"","hours":"","type":"gp","bulk_billing":"unknown"},{"id":"modern-medical-5285524991","osm_id":5285524991,"name":"Modern Medical","lat":-37.98991,"lon":145.214961,"state":"VIC","suburb":"","postcode":"","address":"176, Lonsdale Street , VIC","phone":"","website":"","hours":"","type":"gp","bulk_billing":"unknown"},{"id":"capital-radiology-5285525016","osm_id":5285525016,"name":"Capital Radiology","lat":-37.981607,"lon":145.211326,"state":"VIC","suburb":"","postcode":"","address":"VIC","phone":"","website":"","hours":"","type":"gp","bulk_billing":"unknown"},{"id":"uni-radiology-5285526945","osm_id":5285526945,"name":"Uni Radiology","lat":-37.989537,"lon":145.215442,"state":"VIC","suburb":"","postcode":"","address":"27, VIC","phone":"","website":"","hours":"","type":"gp","bulk_billing":"unknown"},{"id":"langton-medical-centre-5285526972","osm_id":5285526972,"name":"Langton Medical Centre","lat":-37.988444,"lon":145.21637,"state":"VIC","suburb":"","postcode":"","address":"37, Langhorne Street, VIC","phone":"","website":"","hours":"","type":"gp","bulk_billing":"unknown"},{"id":"noble-park-endoscopy-centre-5298509850","osm_id":5298509850,"name":"Noble Park Endoscopy Centre","lat":-37.967102,"lon":145.189666,"state":"VIC","suburb":"","postcode":"","address":"VIC","phone":"","website":"","hours":"","type":"gp","bulk_billing":"unknown"},{"id":"lake-imaging-5302873992","osm_id":5302873992,"name":"Lake Imaging","lat":-38.151134,"lon":144.366883,"state":"VIC","suburb":"","postcode":"","address":"VIC","phone":"","website":"","hours":"","type":"gp","bulk_billing":"unknown"},{"id":"sorrento-medical-centre-5302873997","osm_id":5302873997,"name":"Sorrento Medical Centre","lat":-38.339708,"lon":144.736831,"state":"VIC","suburb":"","postcode":"","address":"VIC","phone":"","website":"","hours":"","type":"gp","bulk_billing":"unknown"},{"id":"dorevitch-pathology-5302873998","osm_id":5302873998,"name":"Dorevitch Pathology","lat":-38.257888,"lon":144.548394,"state":"VIC","suburb":"","postcode":"","address":"VIC","phone":"","website":"","hours":"","type":"gp","bulk_billing":"unknown"},{"id":"mccrae-village-clinic-5302905670","osm_id":5302905670,"name":"McCrae Village Clinic","lat":-38.349252,"lon":144.927449,"state":"VIC","suburb":"","postcode":"","address":"VIC","phone":"","website":"","hours":"Mo-Fr 08:00-18:00; Sa 08:00-12:00; PH closed","type":"gp","bulk_billing":"unknown"},{"id":"mornington-medical-group-5302929951","osm_id":5302929951,"name":"Mornington Medical Group","lat":-38.223372,"lon":145.041283,"state":"VIC","suburb":"","postcode":"","address":"VIC","phone":"","website":"https://morningtonmed.com.au/","hours":"","type":"gp","bulk_billing":"unknown"},{"id":"beachside-doctors-5302929952","osm_id":5302929952,"name":"Beachside Doctors","lat":-38.332104,"lon":144.966458,"state":"VIC","suburb":"","postcode":"","address":"191, Point Nepean Road, VIC","phone":"","website":"","hours":"","type":"gp","bulk_billing":"unknown"},{"id":"frankston-healthcare-5305636020","osm_id":5305636020,"name":"Frankston Healthcare","lat":-38.142476,"lon":145.125622,"state":"VIC","suburb":"","postcode":"","address":"42, Young Street, VIC","phone":"","website":"","hours":"","type":"gp","bulk_billing":"unknown"},{"id":"interhealth-5323056163","osm_id":5323056163,"name":"Interhealth","lat":-37.984785,"lon":145.13404,"state":"VIC","suburb":"Dingley Village","postcode":"","address":"110, Dandenong Road, Dingley Village, VIC","phone":"+61 3 9558 2155","website":"https://inter-health.com.au/","hours":"","type":"gp","bulk_billing":"unknown"},{"id":"clifton-hill-clinic-5330454124","osm_id":5330454124,"name":"Clifton Hill Clinic","lat":-37.78849,"lon":144.997129,"state":"VIC","suburb":"Clifton Hill","postcode":"3068","address":"22, Spensley Street, Clifton Hill, VIC, 3068","phone":"","website":"https://cliftonhillclinic.com.au/","hours":"","type":"gp","bulk_billing":"unknown"},{"id":"medical-dental-surgery-5380354298","osm_id":5380354298,"name":"Medical-Dental Surgery","lat":-37.76187,"lon":144.973084,"state":"VIC","suburb":"","postcode":"","address":"55, Albion Street, VIC","phone":"","website":"","hours":"","type":"gp","bulk_billing":"unknown"},{"id":"mentone-medical-center-5388536317","osm_id":5388536317,"name":"Mentone Medical Center","lat":-37.982489,"lon":145.062849,"state":"VIC","suburb":"","postcode":"","address":"VIC","phone":"","website":"","hours":"","type":"gp","bulk_billing":"unknown"},{"id":"balcombe-road-medical-clinic-5388536574","osm_id":5388536574,"name":"Balcombe Road Medical Clinic","lat":-37.981487,"lon":145.063096,"state":"VIC","suburb":"","postcode":"","address":"VIC","phone":"","website":"","hours":"","type":"gp","bulk_billing":"unknown"},{"id":"st-kerellos-medical-centre-5388812466","osm_id":5388812466,"name":"St Kerellos Medical Centre","lat":-37.982805,"lon":145.065408,"state":"VIC","suburb":"","postcode":"","address":"VIC","phone":"","website":"","hours":"","type":"gp","bulk_billing":"unknown"},{"id":"first-health-medical-5395680032","osm_id":5395680032,"name":"First Health Medical","lat":-37.919471,"lon":145.235295,"state":"VIC","suburb":"","postcode":"","address":"VIC","phone":"","website":"","hours":"","type":"gp","bulk_billing":"unknown"},{"id":"st-francis-medical-centre-5423715481","osm_id":5423715481,"name":"St Francis Medical Centre","lat":-37.761297,"lon":144.973847,"state":"VIC","suburb":"","postcode":"","address":"VIC","phone":"","website":"","hours":"","type":"gp","bulk_billing":"unknown"},{"id":"capital-radiology-5429069424","osm_id":5429069424,"name":"Capital Radiology","lat":-37.659265,"lon":145.020084,"state":"VIC","suburb":"","postcode":"","address":"VIC","phone":"","website":"","hours":"","type":"gp","bulk_billing":"unknown"},{"id":"soulsby-william-thomas-5430190682","osm_id":5430190682,"name":"Soulsby William Thomas","lat":-37.979084,"lon":145.053303,"state":"VIC","suburb":"","postcode":"","address":"VIC","phone":"","website":"","hours":"","type":"gp","bulk_billing":"unknown"},{"id":"brighton-family-medical-cenre-5432559665","osm_id":5432559665,"name":"Brighton Family Medical Cenre","lat":-37.906685,"lon":145.007845,"state":"VIC","suburb":"Brighton","postcode":"3186","address":"412, Bay Street, Brighton, VIC, 3186","phone":"","website":"https://www.ipn.com.au/gp/vic-brighton-bay-street-family-medical-centre/","hours":"Mo 08:00-19:00; Tu,We,Th 08:00-18:00; Fr 08:00-21:00; Sa,Su[1] 09:00-16:00; Sa,Su[3] 09:00-16:00","type":"gp","bulk_billing":"unknown"},{"id":"breed-street-clinic-5448179139","osm_id":5448179139,"name":"Breed Street Clinic","lat":-38.196421,"lon":146.532901,"state":"VIC","suburb":"","postcode":"","address":"VIC","phone":"","website":"https://breedstclinic.com.au/","hours":"","type":"gp","bulk_billing":"unknown"},{"id":"qualitas-medical-practice-5472109997","osm_id":5472109997,"name":"Qualitas Medical Practice","lat":-37.920811,"lon":145.120187,"state":"VIC","suburb":"Clayton","postcode":"3168","address":"271, Clayton Road, Clayton, VIC, 3168","phone":"","website":"","hours":"Mo-Fr 08:00-17:30; Sa,Su,PH closed","type":"gp","bulk_billing":"unknown"},{"id":"fertility-control-clinic-5499997872","osm_id":5499997872,"name":"Fertility Control Clinic","lat":-37.815961,"lon":144.986186,"state":"VIC","suburb":"","postcode":"","address":"VIC","phone":"","website":"https://www.fcc.com.au/","hours":"","type":"gp","bulk_billing":"unknown"},{"id":"vitality-medical-5502554927","osm_id":5502554927,"name":"Vitality Medical","lat":-37.860176,"lon":145.058294,"state":"VIC","suburb":"","postcode":"","address":"1632 - 1638, High Street, VIC","phone":"","website":"","hours":"","type":"gp","bulk_billing":"unknown"},{"id":"wells-medical-clinic-5508067769","osm_id":5508067769,"name":"Wells Medical Clinic","lat":-37.669949,"lon":144.932548,"state":"VIC","suburb":"","postcode":"","address":"176, Blair Street, VIC","phone":"","website":"wellsmedical.com.au","hours":"Mo-Su 08:00-23:00","type":"gp","bulk_billing":"unknown"},{"id":"iris-family-medicine-5508666858","osm_id":5508666858,"name":"Iris Family Medicine","lat":-37.858795,"lon":145.044674,"state":"VIC","suburb":"","postcode":"","address":"VIC","phone":"","website":"","hours":"","type":"gp","bulk_billing":"unknown"},{"id":"equilibrium-5508666864","osm_id":5508666864,"name":"Equilibrium","lat":-37.858327,"lon":145.04152,"state":"VIC","suburb":"","postcode":"","address":"VIC","phone":"","website":"","hours":"","type":"gp","bulk_billing":"unknown"},{"id":"ultimate-chiropractic-5519973643","osm_id":5519973643,"name":"Ultimate Chiropractic","lat":-37.876938,"lon":145.059214,"state":"VIC","suburb":"","postcode":"","address":"VIC","phone":"","website":"","hours":"","type":"gp","bulk_billing":"unknown"},{"id":"stable-health-5554604622","osm_id":5554604622,"name":"Stable Health","lat":-37.780746,"lon":144.932392,"state":"VIC","suburb":"Travancore","postcode":"3032","address":"252, Mount Alexander Road, Travancore, VIC, 3032","phone":"","website":"","hours":"","type":"gp","bulk_billing":"unknown"},{"id":"grant-street-medical-centre-5574677089","osm_id":5574677089,"name":"Grant Street Medical Centre","lat":-37.680146,"lon":144.434882,"state":"VIC","suburb":"","postcode":"","address":"VIC","phone":"","website":"","hours":"","type":"gp","bulk_billing":"unknown"},{"id":"fairfield-dermatology-clinic-5574876091","osm_id":5574876091,"name":"Fairfield Dermatology Clinic","lat":-37.778777,"lon":145.016503,"state":"VIC","suburb":"Fairfield","postcode":"3078","address":"278, Wingrove Street, Fairfield, VIC, 3078","phone":"+61 3 9486 4300","website":"","hours":"Mo-Su 09:00-17:00","type":"gp","bulk_billing":"unknown"},{"id":"wingrove-medical-clinic-5574876093","osm_id":5574876093,"name":"Wingrove Medical Clinic","lat":-37.77878,"lon":145.016814,"state":"VIC","suburb":"Fairfield","postcode":"3078","address":"270, Wingrove Street, Fairfield, VIC, 3078","phone":"","website":"","hours":"Mo 09:00-18:00; Tu-Th 09:00-19:00; Fr 09:00-18:00; Sa 09:00-12:00","type":"gp","bulk_billing":"unknown"},{"id":"bayside-medical-specialists-5579600381","osm_id":5579600381,"name":"Bayside Medical Specialists","lat":-37.98708,"lon":145.070179,"state":"VIC","suburb":"","postcode":"","address":"VIC","phone":"","website":"","hours":"","type":"gp","bulk_billing":"unknown"},{"id":"mentone-eye-specialists-5579600382","osm_id":5579600382,"name":"Mentone Eye Specialists","lat":-37.986957,"lon":145.070236,"state":"VIC","suburb":"","postcode":"","address":"VIC","phone":"","website":"","hours":"","type":"gp","bulk_billing":"unknown"},{"id":"fairfield-city-medical-centre-5579849397","osm_id":5579849397,"name":"Fairfield City Medical Centre","lat":-37.777057,"lon":145.018244,"state":"VIC","suburb":"Fairfield","postcode":"3078","address":"124, Station Street, Fairfield, VIC, 3078","phone":"","website":"","hours":"Mo-Fr 08:30-16:30; Sa 09:00-15:00; Su off","type":"gp","bulk_billing":"unknown"},{"id":"fairfield-paediatrics-5579882864","osm_id":5579882864,"name":"Fairfield Paediatrics","lat":-37.775874,"lon":145.01844,"state":"VIC","suburb":"Fairfield","postcode":"3078","address":"148, Station Street, Fairfield, VIC, 3078","phone":"","website":"","hours":"","type":"gp","bulk_billing":"unknown"},{"id":"dorevitch-pathology-fairfield-5587634142","osm_id":5587634142,"name":"Dorevitch Pathology Fairfield","lat":-37.776065,"lon":145.018859,"state":"VIC","suburb":"Fairfield","postcode":"3078","address":"149-153, Station Street, Fairfield, VIC, 3078","phone":"+61 3 9486 7310","website":"","hours":"Mo-Fr 08:00-16:30","type":"gp","bulk_billing":"unknown"},{"id":"direct-radiology-fairfield-5587634143","osm_id":5587634143,"name":"Direct Radiology Fairfield","lat":-37.776105,"lon":145.018858,"state":"VIC","suburb":"Fairfield","postcode":"3078","address":"149-153, Station Street, Fairfield, VIC, 3078","phone":"+61 3 9489 8884","website":"","hours":"Mo-Fr 08:30-17:00; Sa 09:00-12:00","type":"gp","bulk_billing":"unknown"},{"id":"bacchus-marsh-psychology-clinic-5589387382","osm_id":5589387382,"name":"Bacchus Marsh Psychology Clinic","lat":-37.677,"lon":144.444601,"state":"VIC","suburb":"","postcode":"","address":"243, Bacchus Marsh Road, VIC","phone":"","website":"","hours":"","type":"gp","bulk_billing":"unknown"},{"id":"lalor-mediplex-5630245479","osm_id":5630245479,"name":"Lalor Mediplex","lat":-37.674433,"lon":145.017631,"state":"VIC","suburb":"Lalor","postcode":"3075","address":"6, Messmate Street, Lalor, VIC, 3075","phone":"+61 3 9466 1160","website":"https://mawarrapsychologicalservices.com.au/","hours":"","type":"gp","bulk_billing":"unknown"},{"id":"westmeadows-doctor-5638830550","osm_id":5638830550,"name":"Westmeadows Doctor","lat":-37.677094,"lon":144.886749,"state":"VIC","suburb":"","postcode":"","address":"VIC","phone":"","website":"","hours":"","type":"gp","bulk_billing":"unknown"},{"id":"the-talk-shop-5665199295","osm_id":5665199295,"name":"The Talk Shop","lat":-37.699336,"lon":145.032668,"state":"VIC","suburb":"Reservoir","postcode":"3073","address":"60, Gertz Avenue, Reservoir, VIC, 3073","phone":"1300 224 665","website":"https://thetalkshop.com.au/","hours":"Mo-Fr 08:00-20:00; Sa 09:00-17:00","type":"gp","bulk_billing":"unknown"},{"id":"medical-one-moorabbin-5688958458","osm_id":5688958458,"name":"Medical One - Moorabbin","lat":-37.933492,"lon":145.034421,"state":"VIC","suburb":"","postcode":"","address":"844, Nepean Highway, VIC","phone":"","website":"https://www.medicalone.com.au/","hours":"","type":"gp","bulk_billing":"unknown"},{"id":"me-clinic-plastic-surgery-5694193278","osm_id":5694193278,"name":"Me Clinic Plastic Surgery","lat":-37.877929,"lon":145.048119,"state":"VIC","suburb":"","postcode":"","address":"VIC","phone":"","website":"","hours":"","type":"gp","bulk_billing":"unknown"},{"id":"carnegie-central-5694193284","osm_id":5694193284,"name":"Carnegie Central","lat":-37.884596,"lon":145.058794,"state":"VIC","suburb":"","postcode":"","address":"VIC","phone":"","website":"","hours":"","type":"gp","bulk_billing":"unknown"},{"id":"north-dandenong-clinic-5759927123","osm_id":5759927123,"name":"North Dandenong Clinic","lat":-37.96862,"lon":145.20468,"state":"VIC","suburb":"","postcode":"","address":"VIC","phone":"","website":"","hours":"","type":"gp","bulk_billing":"unknown"},{"id":"sports-injury-5759927129","osm_id":5759927129,"name":"Sports Injury","lat":-37.970195,"lon":145.218426,"state":"VIC","suburb":"","postcode":"","address":"VIC","phone":"","website":"","hours":"","type":"gp","bulk_billing":"unknown"},{"id":"beaumaris-medical-centre-5797334457","osm_id":5797334457,"name":"Beaumaris Medical Centre","lat":-37.985405,"lon":145.03463,"state":"VIC","suburb":"Beaumaris","postcode":"3193","address":"29, North Concourse, Beaumaris, VIC, 3193","phone":"+61 3 9589 4559","website":"","hours":"","type":"gp","bulk_billing":"unknown"},{"id":"mercy-health-5824764042","osm_id":5824764042,"name":"Mercy Health","lat":-37.784564,"lon":144.831195,"state":"VIC","suburb":"","postcode":"","address":"VIC","phone":"","website":"","hours":"","type":"gp","bulk_billing":"unknown"},{"id":"hampshire-road-medical-centre-5824764095","osm_id":5824764095,"name":"Hampshire Road Medical Centre","lat":-37.785762,"lon":144.832497,"state":"VIC","suburb":"","postcode":"","address":"G11, 254, Hampshire Road, VIC","phone":"","website":"","hours":"","type":"gp","bulk_billing":"unknown"},{"id":"dr-ton-nu-minh-dien-5824859950","osm_id":5824859950,"name":"Dr Ton Nu Minh Dien","lat":-37.785616,"lon":144.83279,"state":"VIC","suburb":"","postcode":"","address":"VIC","phone":"","website":"","hours":"","type":"gp","bulk_billing":"unknown"},{"id":"bs-ng-xu-n-l-c-5824861180","osm_id":5824861180,"name":"Bs ng\u00f4 Xu\u00e2n L\u1ed9c","lat":-37.784896,"lon":144.833419,"state":"VIC","suburb":"","postcode":"","address":"VIC","phone":"","website":"","hours":"","type":"gp","bulk_billing":"unknown"},{"id":"glen-iris-medical-centre-5870212069","osm_id":5870212069,"name":"Glen Iris Medical Centre","lat":-37.862707,"lon":145.072151,"state":"VIC","suburb":"","postcode":"","address":"118, High Street, VIC","phone":"","website":"","hours":"","type":"gp","bulk_billing":"unknown"},{"id":"rowville-medical-clinic-5891949950","osm_id":5891949950,"name":"Rowville Medical Clinic","lat":-37.927981,"lon":145.252852,"state":"VIC","suburb":"","postcode":"","address":"VIC","phone":"","website":"","hours":"","type":"gp","bulk_billing":"unknown"},{"id":"peninsula-clinic-5892409776","osm_id":5892409776,"name":"Peninsula Clinic","lat":-38.199846,"lon":145.083619,"state":"VIC","suburb":"","postcode":"","address":"VIC","phone":"","website":"","hours":"","type":"gp","bulk_billing":"unknown"},{"id":"st-mary-s-medical-centre-5892410910","osm_id":5892410910,"name":"St Mary\u2019s Medical Centre","lat":-38.094237,"lon":145.17758,"state":"VIC","suburb":"","postcode":"","address":"VIC","phone":"","website":"","hours":"","type":"gp","bulk_billing":"unknown"},{"id":"maternal-and-child-health-centre-5911651827","osm_id":5911651827,"name":"Maternal and Child Health Centre","lat":-37.74021,"lon":144.968553,"state":"VIC","suburb":"","postcode":"","address":"VIC","phone":"+61 3 9340 1111","website":"","hours":"","type":"gp","bulk_billing":"unknown"},{"id":"murray-road-medical-centre-5921917896","osm_id":5921917896,"name":"Murray Road Medical Centre","lat":-37.738032,"lon":145.003237,"state":"VIC","suburb":"","postcode":"","address":"VIC","phone":"","website":"","hours":"","type":"gp","bulk_billing":"unknown"},{"id":"top-medical-cosmetics-hub-5922126186","osm_id":5922126186,"name":"Top Medical & Cosmetics Hub","lat":-37.8136,"lon":144.966178,"state":"VIC","suburb":"","postcode":"","address":"VIC","phone":"","website":"","hours":"","type":"gp","bulk_billing":"unknown"},{"id":"high-street-medical-and-dentist-centre-preston-5928259297","osm_id":5928259297,"name":"High Street Medical and Dentist Centre Preston","lat":-37.733629,"lon":145.005078,"state":"VIC","suburb":"Preston","postcode":"3072","address":"520-538, High Street, Preston, VIC, 3072","phone":"+61 3 9092 2222","website":"https://www.highstreetmedicalanddental.com.au/","hours":"Mo, We 07:00-20:00; Tu, Fr 07:00-18:00; Th 07:00-18:30; Sa 08:00-16:00; Su, PH 08:00-18:00","type":"gp","bulk_billing":"unknown"},{"id":"station-medical-centre-5980632077","osm_id":5980632077,"name":"Station Medical Centre","lat":-37.745025,"lon":144.800724,"state":"VIC","suburb":"","postcode":"","address":"19, 1-3, Princess Street, VIC","phone":"","website":"","hours":"","type":"gp","bulk_billing":"unknown"},{"id":"dr-khoa-5980632232","osm_id":5980632232,"name":"Dr Khoa","lat":-37.745173,"lon":144.801292,"state":"VIC","suburb":"","postcode":"","address":"12, 1-3, Princess Street, VIC","phone":"","website":"","hours":"","type":"gp","bulk_billing":"unknown"},{"id":"st-albans-family-doctors-clinic-5999385844","osm_id":5999385844,"name":"St Albans Family Doctors Clinic","lat":-37.759588,"lon":144.811881,"state":"VIC","suburb":"","postcode":"","address":"VIC","phone":"","website":"","hours":"","type":"gp","bulk_billing":"unknown"},{"id":"lifeline-medicals-centre-5999528609","osm_id":5999528609,"name":"Lifeline Medicals Centre","lat":-37.799761,"lon":144.862916,"state":"VIC","suburb":"","postcode":"","address":"VIC","phone":"","website":"","hours":"","type":"gp","bulk_billing":"unknown"},{"id":"clarinda-medical-centre-6016847194","osm_id":6016847194,"name":"Clarinda Medical Centre","lat":-37.926924,"lon":145.104313,"state":"VIC","suburb":"","postcode":"","address":"VIC","phone":"","website":"","hours":"","type":"gp","bulk_billing":"unknown"},{"id":"gower-st-family-dental-6017200115","osm_id":6017200115,"name":"Gower St Family Dental","lat":-37.740704,"lon":145.004886,"state":"VIC","suburb":"","postcode":"","address":"VIC","phone":"","website":"","hours":"","type":"gp","bulk_billing":"unknown"},{"id":"footscray-medical-centre-6033469812","osm_id":6033469812,"name":"Footscray Medical Centre","lat":-37.799189,"lon":144.901495,"state":"VIC","suburb":"","postcode":"","address":"42B, Byron Street, VIC","phone":"","website":"","hours":"","type":"gp","bulk_billing":"unknown"},{"id":"radiology-imaging-solutions-6033469816","osm_id":6033469816,"name":"Radiology Imaging Solutions","lat":-37.7992,"lon":144.901644,"state":"VIC","suburb":"","postcode":"","address":"38-40, Byron Street, VIC","phone":"","website":"","hours":"","type":"gp","bulk_billing":"unknown"},{"id":"bac-si-bui-dac-thong-6033562188","osm_id":6033562188,"name":"Bac Si Bui Dac Thong","lat":-37.799569,"lon":144.900803,"state":"VIC","suburb":"","postcode":"","address":"VIC","phone":"","website":"","hours":"","type":"gp","bulk_billing":"unknown"},{"id":"dr-thu-nguyet-6033562193","osm_id":6033562193,"name":"Dr Thu Nguyet","lat":-37.799032,"lon":144.899577,"state":"VIC","suburb":"","postcode":"","address":"72, Nicholson Street, VIC","phone":"","website":"","hours":"","type":"gp","bulk_billing":"unknown"},{"id":"sia-medical-centre-6033562206","osm_id":6033562206,"name":"SIA Medical Centre","lat":-37.799424,"lon":144.897812,"state":"VIC","suburb":"","postcode":"","address":"VIC","phone":"","website":"","hours":"","type":"gp","bulk_billing":"unknown"},{"id":"millenium-medical-6033569529","osm_id":6033569529,"name":"Millenium Medical","lat":-37.80088,"lon":144.898241,"state":"VIC","suburb":"","postcode":"","address":"VIC","phone":"","website":"","hours":"","type":"gp","bulk_billing":"unknown"},{"id":"bfc-podiatry-6040706698","osm_id":6040706698,"name":"BFC Podiatry","lat":-37.927571,"lon":145.11306,"state":"VIC","suburb":"","postcode":"","address":"1361, VIC","phone":"","website":"https://bfcfootclinic.com.au/","hours":"","type":"gp","bulk_billing":"unknown"},