[{"id":"child-health-clinic-244217133","osm_id":244217133,"name":"Child Health Clinic","lat":-35.234449,"lon":149.103272,"state":"ACT","suburb":"","postcode":"","address":"ACT","phone":"","website":"","hours":"","type":"gp","bulk_billing":"unknown"},{"id":"palmerston-medical-centre-250665342","osm_id":250665342,"name":"Palmerston Medical Centre","lat":-35.1972,"lon":149.118634,"state":"ACT","suburb":"","postcode":"","address":"ACT","phone":"","website":"https://palmerstonmedicalcentre.com/","hours":"","type":"gp","bulk_billing":"unknown"},{"id":"gungahlin-general-practice-596068081","osm_id":596068081,"name":"Gungahlin General Practice","lat":-35.185307,"lon":149.137132,"state":"ACT","suburb":"","postcode":"","address":"ACT","phone":"","website":"http://www.gungahlingp.com/","hours":"Mo-Fr 08:00-19:00; Sa 08:30-12:30; Su 09:00-12:00","type":"gp","bulk_billing":"unknown"},{"id":"campbell-medical-practice-602927333","osm_id":602927333,"name":"Campbell Medical Practice","lat":-35.289194,"lon":149.154185,"state":"ACT","suburb":"","postcode":"","address":"ACT","phone":"","website":"","hours":"Mo-Fr 08:00-17:00","type":"gp","bulk_billing":"unknown"},{"id":"the-surgery-at-jerrabomberra-1323217076","osm_id":1323217076,"name":"The Surgery at Jerrabomberra","lat":-35.386162,"lon":149.200537,"state":"ACT","suburb":"","postcode":"","address":"ACT","phone":"","website":"https://tsaj.com.au/","hours":"","type":"gp","bulk_billing":"unknown"},{"id":"mawson-medical-centre-1426796876","osm_id":1426796876,"name":"Mawson Medical Centre","lat":-35.370959,"lon":149.099976,"state":"ACT","suburb":"","postcode":"","address":"73, Wilkins Street, ACT","phone":"","website":"","hours":"","type":"gp","bulk_billing":"unknown"},{"id":"fisher-family-practice-1796609909","osm_id":1796609909,"name":"Fisher Family Practice","lat":-35.361476,"lon":149.057085,"state":"ACT","suburb":"","postcode":"","address":"Fisher Square, ACT","phone":"","website":"https://www.fisherpractice.com.au/","hours":"Mo-Fr 08:30-18:00","type":"gp","bulk_billing":"unknown"},{"id":"canberra-imaging-group-1894450085","osm_id":1894450085,"name":"Canberra Imaging Group","lat":-35.349628,"lon":149.102611,"state":"ACT","suburb":"","postcode":"","address":"ACT","phone":"","website":"","hours":"","type":"gp","bulk_billing":"unknown"},{"id":"capital-pathology-1894450102","osm_id":1894450102,"name":"Capital Pathology","lat":-35.349643,"lon":149.102576,"state":"ACT","suburb":"","postcode":"","address":"ACT","phone":"","website":"","hours":"","type":"gp","bulk_billing":"unknown"},{"id":"gastrotract-endoscopy-centre-1894450104","osm_id":1894450104,"name":"Gastrotract Endoscopy Centre","lat":-35.34961,"lon":149.102651,"state":"ACT","suburb":"","postcode":"","address":"ACT","phone":"","website":"","hours":"","type":"gp","bulk_billing":"unknown"},{"id":"dr-ann-ian-crawshaw-1946016589","osm_id":1946016589,"name":"Dr Ann & Ian Crawshaw","lat":-35.252846,"lon":149.091227,"state":"ACT","suburb":"","postcode":"","address":"ACT","phone":"","website":"","hours":"","type":"gp","bulk_billing":"unknown"},{"id":"nephrocare-northside-dialysis-clinic-1946016590","osm_id":1946016590,"name":"Nephrocare Northside Dialysis Clinic","lat":-35.252694,"lon":149.091511,"state":"ACT","suburb":"","postcode":"","address":"ACT","phone":"","website":"","hours":"","type":"dialysis","bulk_billing":"unknown"},{"id":"western-creek-medical-practice-1968017286","osm_id":1968017286,"name":"Western Creek Medical Practice","lat":-35.342172,"lon":149.052625,"state":"ACT","suburb":"","postcode":"","address":"ACT","phone":"","website":"https://westongp.com.au/","hours":"","type":"gp","bulk_billing":"unknown"},{"id":"chapman-medical-centre-2015911841","osm_id":2015911841,"name":"Chapman Medical Centre","lat":-35.355534,"lon":149.04087,"state":"ACT","suburb":"","postcode":"","address":"ACT","phone":"","website":"","hours":"","type":"gp","bulk_billing":"unknown"},{"id":"dr-ak-marinos-2106544156","osm_id":2106544156,"name":"Dr AK Marinos","lat":-35.336372,"lon":149.044004,"state":"ACT","suburb":"","postcode":"","address":"ACT","phone":"","website":"","hours":"","type":"gp","bulk_billing":"unknown"},{"id":"scullin-medical-practice-2122115664","osm_id":2122115664,"name":"Scullin Medical Practice","lat":-35.233827,"lon":149.040127,"state":"ACT","suburb":"","postcode":"","address":"ACT","phone":"+61 2 6278 3488","website":"","hours":"","type":"gp","bulk_billing":"unknown"},{"id":"conder-medical-dental-centre-2155587242","osm_id":2155587242,"name":"Conder Medical Dental Centre","lat":-35.45691,"lon":149.09321,"state":"ACT","suburb":"","postcode":"","address":"ACT","phone":"","website":"","hours":"","type":"gp","bulk_billing":"unknown"},{"id":"ochre-health-calwell-2156916160","osm_id":2156916160,"name":"Ochre Health Calwell","lat":-35.434593,"lon":149.113863,"state":"ACT","suburb":"","postcode":"","address":"ACT","phone":"","website":"","hours":"","type":"gp","bulk_billing":"unknown"},{"id":"kambah-village-medical-practice-2160503591","osm_id":2160503591,"name":"Kambah Village Medical Practice","lat":-35.379899,"lon":149.0576,"state":"ACT","suburb":"","postcode":"","address":"ACT","phone":"","website":"","hours":"","type":"gp","bulk_billing":"unknown"},{"id":"garema-place-surgery-2161974569","osm_id":2161974569,"name":"Garema Place Surgery","lat":-35.278839,"lon":149.132025,"state":"ACT","suburb":"","postcode":"","address":"ACT","phone":"","website":"","hours":"","type":"gp","bulk_billing":"unknown"},{"id":"majura-medical-centre-2186593845","osm_id":2186593845,"name":"Majura Medical Centre","lat":-35.24936,"lon":149.140652,"state":"ACT","suburb":"","postcode":"","address":"ACT","phone":"","website":"","hours":"","type":"gp","bulk_billing":"unknown"},{"id":"weston-creek-family-medicine-2236409872","osm_id":2236409872,"name":"Weston Creek Family Medicine","lat":-35.340699,"lon":149.053005,"state":"ACT","suburb":"","postcode":"","address":"ACT","phone":"","website":"","hours":"","type":"gp","bulk_billing":"unknown"},{"id":"jamison-medical-and-skin-cancer-clinic-2293572867","osm_id":2293572867,"name":"Jamison Medical and Skin Cancer Clinic","lat":-35.25281,"lon":149.071751,"state":"ACT","suburb":"","postcode":"","address":"ACT","phone":"","website":"https://www.yourhealth.net.au/jamison/","hours":"Mo-Fr 08:30-17:00","type":"gp","bulk_billing":"unknown"},{"id":"brindabella-family-practice-2857833541","osm_id":2857833541,"name":"Brindabella Family Practice","lat":-35.352226,"lon":149.232114,"state":"ACT","suburb":"","postcode":"","address":"ACT","phone":"","website":"","hours":"","type":"gp","bulk_billing":"unknown"},{"id":"gungahlin-medical-centre-3861776662","osm_id":3861776662,"name":"Gungahlin Medical Centre","lat":-35.185634,"lon":149.136941,"state":"ACT","suburb":"","postcode":"","address":"ACT","phone":"","website":"https://www.gungahlinmedicalcentre.com.au/","hours":"Mo-Fr 08:00-18:00; Sa,Su 09:00-12:00","type":"gp","bulk_billing":"unknown"},{"id":"gungahlin-medical-practice-3861776663","osm_id":3861776663,"name":"Gungahlin Medical Practice","lat":-35.185458,"lon":149.13325,"state":"ACT","suburb":"","postcode":"","address":"ACT","phone":"","website":"https://gungahlinmedicalpractice.com.au/","hours":"Mo-Fr 08:00-20:00; Sa 09:00-17:00; Su 09:00-16:00","type":"gp","bulk_billing":"unknown"},{"id":"ochre-health-medical-centre-bruce-6062403089","osm_id":6062403089,"name":"Ochre Health Medical Centre Bruce","lat":-35.234756,"lon":149.087646,"state":"ACT","suburb":"","postcode":"","address":"ACT","phone":"","website":"","hours":"Mo-Fr 07:00-19:30; Sa 09:00-17:00","type":"gp","bulk_billing":"unknown"},{"id":"kaleen-family-clinic-6183131075","osm_id":6183131075,"name":"Kaleen Family Clinic","lat":-35.220593,"lon":149.102718,"state":"ACT","suburb":"","postcode":"","address":"ACT","phone":"","website":"","hours":"","type":"gp","bulk_billing":"unknown"},{"id":"national-health-cooperative-6302682194","osm_id":6302682194,"name":"National Health Cooperative","lat":-35.277503,"lon":149.119997,"state":"ACT","suburb":"","postcode":"","address":"ACT","phone":"","website":"","hours":"","type":"gp","bulk_billing":"unknown"},{"id":"my-medical-practice-charnwood-6919302921","osm_id":6919302921,"name":"My Medical Practice Charnwood","lat":-35.204996,"lon":149.033267,"state":"ACT","suburb":"Charnwood","postcode":"2615","address":"7, 7, Charnwood Place, Charnwood, ACT, 2615","phone":"+61 2 6258 0006","website":"https://mymedicalpracticecharnwood.weebly.com/","hours":"Mo-Fr 08:30-17:30","type":"gp","bulk_billing":"unknown"},{"id":"your-gp-denman-6961335456","osm_id":6961335456,"name":"Your GP@Denman","lat":-35.299078,"lon":149.023846,"state":"ACT","suburb":"","postcode":"","address":"ACT","phone":"","website":"","hours":"Mo-Fr 08:00-18:00","type":"gp","bulk_billing":"unknown"},{"id":"belconnen-chiropractic-centre-7003503076","osm_id":7003503076,"name":"Belconnen Chiropractic Centre","lat":-35.237762,"lon":149.071696,"state":"ACT","suburb":"","postcode":"","address":"ACT","phone":"","website":"","hours":"","type":"gp","bulk_billing":"unknown"},{"id":"belconnen-mall-medical-centre-7140585011","osm_id":7140585011,"name":"Belconnen Mall Medical Centre","lat":-35.237609,"lon":149.066606,"state":"ACT","suburb":"","postcode":"","address":"ACT","phone":"","website":"","hours":"","type":"gp","bulk_billing":"unknown"},{"id":"googong-family-practice-7462892405","osm_id":7462892405,"name":"Googong Family Practice","lat":-35.422005,"lon":149.236388,"state":"ACT","suburb":"","postcode":"","address":"ACT","phone":"","website":"http://googongfp.com.au/","hours":"","type":"gp","bulk_billing":"unknown"},{"id":"act-pain-and-wellness-clinic-7472973244","osm_id":7472973244,"name":"ACT Pain and Wellness Clinic","lat":-35.241018,"lon":149.062766,"state":"ACT","suburb":"","postcode":"","address":"ACT","phone":"","website":"","hours":"","type":"gp","bulk_billing":"unknown"},{"id":"north-canberra-family-practice-7639592732","osm_id":7639592732,"name":"North Canberra Family Practice","lat":-35.237498,"lon":149.06877,"state":"ACT","suburb":"","postcode":"","address":"5B, Chandler Street, ACT","phone":"","website":"https://northcanberrafamilypractice.com.au","hours":"","type":"gp","bulk_billing":"unknown"},{"id":"capital-pathology-7940893652","osm_id":7940893652,"name":"Capital Pathology","lat":-35.261706,"lon":149.145398,"state":"ACT","suburb":"","postcode":"","address":"ACT","phone":"+61 2 6247 3789","website":"","hours":"","type":"gp","bulk_billing":"unknown"},{"id":"holt-medical-centre-8376935477","osm_id":8376935477,"name":"Holt Medical Centre","lat":-35.224521,"lon":149.011367,"state":"ACT","suburb":"","postcode":"","address":"8, Holt Place, ACT","phone":"","website":"https://www.holtmedicalcentre.com","hours":"","type":"gp","bulk_billing":"unknown"},{"id":"icon-cancer-centre-canberra-8481172765","osm_id":8481172765,"name":"ICON Cancer Centre Canberra","lat":-35.236634,"lon":149.086549,"state":"ACT","suburb":"","postcode":"","address":"ACT","phone":"","website":"","hours":"Mo-Fr 08:00-17:00","type":"gp","bulk_billing":"unknown"},{"id":"qscan-bruce-8481172766","osm_id":8481172766,"name":"QSCAN Bruce","lat":-35.236679,"lon":149.086464,"state":"ACT","suburb":"","postcode":"","address":"ACT","phone":"","website":"","hours":"","type":"gp","bulk_billing":"unknown"},{"id":"central-outpatients-8488740235","osm_id":8488740235,"name":"Central Outpatients","lat":-35.345272,"lon":149.101273,"state":"ACT","suburb":"","postcode":"","address":"ACT","phone":"","website":"","hours":"","type":"gp","bulk_billing":"unknown"},{"id":"icon-cancer-centre-8577152018","osm_id":8577152018,"name":"ICON Cancer Centre","lat":-35.236657,"lon":149.086557,"state":"ACT","suburb":"","postcode":"","address":"Allawoona Street, ACT","phone":"","website":"","hours":"","type":"gp","bulk_billing":"unknown"},{"id":"higgins-surgery-8686315686","osm_id":8686315686,"name":"Higgins Surgery","lat":-35.231389,"lon":149.027123,"state":"ACT","suburb":"","postcode":"","address":"ACT","phone":"","website":"","hours":"","type":"gp","bulk_billing":"unknown"},{"id":"belconnen-medical-and-skin-clinic-8686315703","osm_id":8686315703,"name":"Belconnen Medical and Skin Clinic","lat":-35.23132,"lon":149.026948,"state":"ACT","suburb":"","postcode":"","address":"9, Higgins Place, ACT","phone":"+61 2 5100 3157","website":"https://www.belconnenclinic.com.au/","hours":"","type":"gp","bulk_billing":"unknown"},{"id":"canberra-complementary-health-practice-8686411554","osm_id":8686411554,"name":"Canberra Complementary Health Practice","lat":-35.243084,"lon":149.043172,"state":"ACT","suburb":"","postcode":"","address":"5, ACT","phone":"","website":"","hours":"","type":"gp","bulk_billing":"unknown"},{"id":"gungahlin-medical-and-surgical-centre-8714001040","osm_id":8714001040,"name":"Gungahlin Medical and Surgical Centre","lat":-35.186517,"lon":149.135032,"state":"ACT","suburb":"","postcode":"","address":"ACT","phone":"","website":"","hours":"","type":"gp","bulk_billing":"unknown"},{"id":"orthoclinic-specialist-orthodontics-9467215253","osm_id":9467215253,"name":"Orthoclinic Specialist Orthodontics","lat":-35.32047,"lon":149.132109,"state":"ACT","suburb":"","postcode":"","address":"27, Bougainville Street, ACT","phone":"","website":"","hours":"","type":"gp","bulk_billing":"unknown"},{"id":"medical-and-skin-clinic-9778533454","osm_id":9778533454,"name":"Medical and Skin Clinic","lat":-35.246226,"lon":149.064638,"state":"ACT","suburb":"","postcode":"","address":"ACT","phone":"","website":"","hours":"Mo-Fr 08:30-17:00; Sa 12:00-16:00","type":"gp","bulk_billing":"unknown"},{"id":"healthfount-medical-centre-11047340852","osm_id":11047340852,"name":"Healthfount Medical Centre","lat":-35.248224,"lon":149.059936,"state":"ACT","suburb":"","postcode":"","address":"ACT","phone":"","website":"","hours":"","type":"gp","bulk_billing":"unknown"},{"id":"my-gp-gungahlin-11278822450","osm_id":11278822450,"name":"My GP Gungahlin","lat":-35.18548,"lon":149.135642,"state":"ACT","suburb":"","postcode":"","address":"43, 43 Hibberson Street, ACT","phone":"+61 2 6255 6000","website":"https://mygpgungahlin.com.au/","hours":"","type":"gp","bulk_billing":"unknown"},{"id":"wentworth-avenue-family-practice-11932508006","osm_id":11932508006,"name":"Wentworth Avenue Family Practice","lat":-35.317289,"lon":149.14659,"state":"ACT","suburb":"","postcode":"","address":"55, Wentworth Avenue, ACT","phone":"+61 2 6203 4600","website":"https://wentworthavenuefamilypractice.com.au/","hours":"Mo-Fr 08:00-17:30; Sa 09:00-16:00","type":"gp","bulk_billing":"unknown"},{"id":"greenway-medical-centre-12099872149","osm_id":12099872149,"name":"Greenway Medical Centre","lat":-35.415488,"lon":149.067763,"state":"ACT","suburb":"","postcode":"","address":"ACT","phone":"","website":"","hours":"","type":"gp","bulk_billing":"unknown"},{"id":"googong-family-practice-12653325871","osm_id":12653325871,"name":"Googong Family Practice","lat":-35.422142,"lon":149.236522,"state":"ACT","suburb":"","postcode":"","address":"ACT","phone":"+61 2 5104 9595","website":"","hours":"","type":"gp","bulk_billing":"unknown"},{"id":"macquarie-general-practice-12709179614","osm_id":12709179614,"name":"Macquarie General Practice","lat":-35.253763,"lon":149.071025,"state":"ACT","suburb":"","postcode":"","address":"ACT","phone":"","website":"","hours":"","type":"gp","bulk_billing":"unknown"},{"id":"kingston-foreshore-medical-centre-12859713796","osm_id":12859713796,"name":"Kingston Foreshore Medical Centre","lat":-35.313136,"lon":149.146712,"state":"ACT","suburb":"Kingston","postcode":"2604","address":"147, 39, Eastlake Parade, Kingston, ACT, 2604","phone":"+61 2 5110 3144","website":"https://kfmc.com.au/","hours":"Mo-Fr 08:00-18:00; Sa-Su 09:00-13:00","type":"gp","bulk_billing":"unknown"}]